rank,property_id,address,latitude,longitude,price,currency,bathrooms,bedrooms,area,land_area,zestimate,rent_zestimate,days_on_zillow,sold_date,is_zillow_owned,image,listing_type,broker_name,input,property_url,listing_url
205,70983496,"109 Sunrise Fls, Cibolo, TX 78108",29.599431,-98.254866,296000,USD,3,3,2294.0 sqft,,270100,2024,0,,FALSE,https://photos.zillowstatic.com/fp/41ca49058594aa920764c275348a1a5b-p_e.jpg,House for sale,Opendoor Brokerage LLC,https://www.zillow.com/homes/TX_rb/,https://www.zillow.com/homedetails/109-Sunrise-Fls-Cibolo-TX-78108/70983496_zpid/,https://www.zillow.com/homes/TX_rb/6_p/
711,30429260,"299 Mount Whitney Way, Lake Placid, NY 12946",44.306944,-73.950285,1995000,USD,5,4,3000.0 sqft,,,,0,,FALSE,https://photos.zillowstatic.com/fp/3071787e4e53ff37262f4f8a7e28b740-p_e.jpg,House for sale,"Listing by: Merrill L. Thomas, Inc.",https://www.zillow.com/homes/NY_rb/,https://www.zillow.com/homedetails/299-Mount-Whitney-Way-Lake-Placid-NY-12946/30429260_zpid/,https://www.zillow.com/homes/NY_rb/18_p/
66,97629907,"2910 Persimmon Grv, Richmond, TX 77469",29.557442,-95.751786,425000,USD,3,2,2575.0 sqft,,436000,2967,0,,FALSE,https://photos.zillowstatic.com/fp/f4716b346d1f1ed2de4aa9feffaca33a-p_e.jpg,House for sale,CENTURY 21 Western Realty,https://www.zillow.com/homes/TX_rb/,https://www.zillow.com/homedetails/2910-Persimmon-Grv-Richmond-TX-77469/97629907_zpid/,https://www.zillow.com/homes/TX_rb/2_p/
222,240296342,"19251 E State Route 106, Belfair, WA 98528",47.427678,-122.855113,895000,USD,2,2,1248.0 sqft,,,1969,0,,FALSE,https://photos.zillowstatic.com/fp/690e2ee9c080ca2569a879c42777d3ee-p_e.jpg,Active,,https://www.zillow.com/homes/WA_rb/,https://www.zillow.com/homedetails/19251-E-State-Route-106-Belfair-WA-98528/240296342_zpid/,https://www.zillow.com/homes/WA_rb/6_p/
444,2076995275,"Clover Plan, The Alpine Collection at Altaira at High Point",39.81367,-104.765885,391500,USD,3,4,1752.0 sqft,,,1756,9,,FALSE,https://photos.zillowstatic.com/fp/9b2ae0d3768684967fdcd6cfd81b1039-p_e.jpg,New construction,,"https://www.zillow.com/homes/denver,-co_rb/",https://www.zillow.com/community/alpine-collection-at-altaira-at-high-point/2076995275_zpid/,"https://www.zillow.com/homes/denver,-co_rb/12_p/"
209,61946745,"332 C St SW, Ephrata, WA 98823",47.31756,-119.555181,225000,USD,1,3,2053.0 sqft,,231400,1497,0,,FALSE,https://photos.zillowstatic.com/fp/8598223964474256af62905368ede282-p_e.jpg,Active,,https://www.zillow.com/homes/WA_rb/,https://www.zillow.com/homedetails/332-C-St-SW-Ephrata-WA-98823/61946745_zpid/,https://www.zillow.com/homes/WA_rb/6_p/
361,2067947748,"1 5th Ave #13AJK, New York, NY 10003",40.731899,-73.9962,5500000,USD,3,5,,,,,0,,FALSE,https://photos.zillowstatic.com/fp/2cf5832695674deb50d1f53301f8946d-p_e.jpg,Condo for sale,Listing by: Douglas Elliman,https://www.zillow.com/homes/NY_rb/,https://www.zillow.com/homedetails/1-5th-Ave-13AJK-New-York-NY-10003/2067947748_zpid/,https://www.zillow.com/homes/NY_rb/10_p/
740,96666043,"5040 Martin Luther King Jr Way S #B, Seattle, WA 98118",47.555955,-122.290041,535000,USD,2,2,960.0 sqft,,510900,2358,0,,FALSE,https://photos.zillowstatic.com/fp/c33a3f681ba7e56c6bab4772ad75bc6b-p_e.jpg,Active,,https://www.zillow.com/homes/WA_rb/,https://www.zillow.com/homedetails/5040-Martin-Luther-King-Jr-Way-S-B-Seattle-WA-98118/96666043_zpid/,https://www.zillow.com/homes/WA_rb/19_p/
24,16713230,"545 Ocean View Ave, Encinitas, CA 92024",33.058939,-117.291904,2799900,USD,4,4,3164.0 sqft,,2951100,8486,9,,FALSE,https://photos.zillowstatic.com/fp/5df598bdc169d389a30c47ba1e67ec64-p_e.jpg,House for sale,"eXp Realty of California, Inc.","https://www.zillow.com/homes/Encinitas,-CA_rb/",https://www.zillow.com/homedetails/545-Ocean-View-Ave-Encinitas-CA-92024/16713230_zpid/,"https://www.zillow.com/homes/Encinitas,-CA_rb/"
728,72109285,"350 11th Ave UNIT 224, San Diego, CA 92101",32.708987,-117.154838,674900,USD,2,2,1078.0 sqft,,,,25,,FALSE,https://photos.zillowstatic.com/fp/057244ef1708e132ddbb5f5cff22839c-p_e.jpg,Condo for sale,,"https://www.zillow.com/homes/San-Diego,-CA_rb/",https://www.zillow.com/homedetails/350-11th-Ave-UNIT-224-San-Diego-CA-92101/72109285_zpid/,"https://www.zillow.com/homes/San-Diego,-CA_rb/19_p/"
497,2067949134,"1408C 21st Ave, Seattle, WA 98122",47.613278,-122.30454,869000,USD,3,2,1497.0 sqft,,,,0,,FALSE,https://photos.zillowstatic.com/fp/19d4e9ec3e357cc790ccf74e12f578a4-p_e.jpg,Active,,https://www.zillow.com/homes/WA_rb/,https://www.zillow.com/homedetails/1408C-21st-Ave-Seattle-WA-98122/2067949134_zpid/,https://www.zillow.com/homes/WA_rb/13_p/
369,58685747,"300 W 11th Ave UNIT 19A, Denver, CO 80204",39.733796,-104.991789,1950000,USD,4,4,3403.0 sqft,,1950000,4925,7,,FALSE,https://photos.zillowstatic.com/fp/c038e48b148df58c36b8d3fddcb59e9a-p_e.jpg,Condo for sale,"Iconique Real Estate, LLC","https://www.zillow.com/homes/denver,-co_rb/",https://www.zillow.com/homedetails/300-W-11th-Ave-UNIT-19A-Denver-CO-80204/58685747_zpid/,"https://www.zillow.com/homes/denver,-co_rb/10_p/"
105,16649104,"1735 Kirk Pl, Carlsbad, CA 92008",33.154925,-117.323344,1695000,USD,2,4,2132.0 sqft,,1714700,3200,63,,FALSE,https://photos.zillowstatic.com/fp/08c1e6f153b9eb1acd7b1317a6ab3afa-p_e.jpg,House for sale,Pacific Investment Properties,"https://www.zillow.com/homes/carlsbad,-CA_rb/",https://www.zillow.com/homedetails/1735-Kirk-Pl-Carlsbad-CA-92008/16649104_zpid/,"https://www.zillow.com/homes/carlsbad,-CA_rb/3_p/"
253,241741545,"6556 32nd Ave NE, Seattle, WA 98115",47.676898,-122.292611,2085000,USD,4,4,4000.0 sqft,,2068100,5284,0,,FALSE,https://photos.zillowstatic.com/fp/6f04a5e562535ac9e566746a131f247f-p_e.jpg,Active,,https://www.zillow.com/homes/WA_rb/,https://www.zillow.com/homedetails/6556-32nd-Ave-NE-Seattle-WA-98115/241741545_zpid/,https://www.zillow.com/homes/WA_rb/7_p/
532,247261885,"2863 Spring Rose Cir, Coralville, IA 52241",41.704755,-91.6137,529900,USD,4,4,2891.0 sqft,,,1032,2,,FALSE,https://photos.zillowstatic.com/fp/eb14d416f9d5b831d9491a9d06bc6172-p_e.jpg,House for sale,,https://www.zillow.com/homes/IA_rb/,https://www.zillow.com/homedetails/2863-Spring-Rose-Cir-Coralville-IA-52241/247261885_zpid/,https://www.zillow.com/homes/IA_rb/14_p/
778,88783088,"825 W Beech St UNIT 301, San Diego, CA 92101",32.720323,-117.170483,779000,USD,3,2,1282.0 sqft,,774700,3566,29,,FALSE,https://photos.zillowstatic.com/fp/b65f7892a398c20b91ec507f5bf4d050-p_e.jpg,Condo for sale,,"https://www.zillow.com/homes/San-Diego,-CA_rb/",https://www.zillow.com/homedetails/825-W-Beech-St-UNIT-301-San-Diego-CA-92101/88783088_zpid/,"https://www.zillow.com/homes/San-Diego,-CA_rb/20_p/"
51,76679888,"215 3rd Ave SW, Waverly, IA 50677",42.722563,-92.473925,164950,USD,2,3,1711.0 sqft,,143400,1200,0,,FALSE,https://photos.zillowstatic.com/fp/8d31246462f60eed5e7a2418a63551f4-p_e.jpg,House for sale,Coldwell Banker Elevated Real Estate,https://www.zillow.com/homes/IA_rb/,https://www.zillow.com/homedetails/215-3rd-Ave-SW-Waverly-IA-50677/76679888_zpid/,https://www.zillow.com/homes/IA_rb/2_p/
423,2068655346,"96 Quail Hollow Dr, San Jose, CA 95128",37.298259,-121.934681,269000,USD,2,2,1440.0 sqft,,,2914,38,,FALSE,https://photos.zillowstatic.com/fp/c46224421320696ee1acb773343d25d5-p_e.jpg,Home for sale,,"https://www.zillow.com/homes/san-jose,-CA_rb/",https://www.zillow.com/homedetails/96-Quail-Hollow-Dr-San-Jose-CA-95128/2068655346_zpid/,"https://www.zillow.com/homes/san-jose,-CA_rb/11_p/"
394,29479830,"609 Clifford Dr, Austin, TX 78745",30.22378,-97.772385,575000,USD,,0,,"9,757 sqft",,,0,,FALSE,https://photos.zillowstatic.com/fp/2a8c72c7196b3a7d60d4d353b21c2786-p_e.jpg,Active,"Dochen, REALTORS",https://www.zillow.com/homes/TX_rb/,https://www.zillow.com/homedetails/609-Clifford-Dr-Austin-TX-78745/29479830_zpid/,https://www.zillow.com/homes/TX_rb/10_p/
231,238337348,"813 Cherry St NW, Bondurant, IA 50035",41.710072,-93.466078,234900,USD,2,3,1168.0 sqft,,,688,0,,FALSE,https://photos.zillowstatic.com/fp/178a6eebb6d60fe245c86d4fe556dab2-p_e.jpg,New construction,RE/MAX Concepts,https://www.zillow.com/homes/IA_rb/,https://www.zillow.com/homedetails/813-Cherry-St-NW-Bondurant-IA-50035/238337348_zpid/,https://www.zillow.com/homes/IA_rb/6_p/
253,13310709,"3485 W 33rd Ave, Denver, CO 80211",39.764103,-105.034285,925000,USD,3,3,2042.0 sqft,,961600,3694,2,,FALSE,https://photos.zillowstatic.com/fp/f24c1227ac760c852a64782ce8c023c5-p_e.jpg,House for sale,"BSW Real Estate, LLC","https://www.zillow.com/homes/denver,-co_rb/",https://www.zillow.com/homedetails/3485-W-33rd-Ave-Denver-CO-80211/13310709_zpid/,"https://www.zillow.com/homes/denver,-co_rb/7_p/"
430,219733295,"Zellner Rd, Summit, NY 12175",42.559239,-74.61414,34900,USD,,,,7.23 acres,,2674,0,,FALSE,https://photos.zillowstatic.com/fp/bcd9b8424765935a99034ef268a36612-p_e.jpg,Lot / Land for sale,Listing by: Country Boy Realty,https://www.zillow.com/homes/NY_rb/,https://www.zillow.com/homedetails/Zellner-Rd-Summit-NY-12175/219733295_zpid/,https://www.zillow.com/homes/NY_rb/11_p/
433,2072047343,"Bellhaven Plan, Southbridge Farms",41.60208,-94.01261,304990,USD,3,4,2053.0 sqft,,,,1,,FALSE,https://photos.zillowstatic.com/fp/1bddd6021fe05fde8072c57f0b6dbe5e-p_e.jpg,New construction,,https://www.zillow.com/homes/IA_rb/,https://www.zillow.com/community/southbridge-farms/2072047343_zpid/,https://www.zillow.com/homes/IA_rb/11_p/
205,19769254,"3347 Hostetter Rd, San Jose, CA 95132",37.409136,-121.851067,1299000,USD,2,4,1383.0 sqft,,1407700,3599,8,,FALSE,https://photos.zillowstatic.com/fp/7087baf48dc43d9c253dbfb8d5facda6-p_e.jpg,House for sale,,"https://www.zillow.com/homes/san-jose,-CA_rb/",https://www.zillow.com/homedetails/3347-Hostetter-Rd-San-Jose-CA-95132/19769254_zpid/,"https://www.zillow.com/homes/san-jose,-CA_rb/6_p/"
12,2069780911,"328-330 9th St, Del Mar, CA 92014",32.952728,-117.265247,3200000,USD,3,5,2730.0 sqft,,,10645,36,,FALSE,https://photos.zillowstatic.com/fp/db38d26f9f86f7c87859e99a1de7c481-p_e.jpg,Multi-family home for sale,,"https://www.zillow.com/homes/Del-Mar,-CA_rb/",https://www.zillow.com/homedetails/328-330-9th-St-Del-Mar-CA-92014/2069780911_zpid/,"https://www.zillow.com/homes/Del-Mar,-CA_rb/"
535,2069947035,"1818 The Alameda, San Jose, CA 95126",37.339455,-121.920818,3500000,USD,2,0,4550.0 sqft,,,1784,105,,FALSE,https://photos.zillowstatic.com/fp/0254e18a159c220765144e60449b7e4c-p_e.jpg,House for sale,,"https://www.zillow.com/homes/san-jose,-CA_rb/",https://www.zillow.com/homedetails/1818-The-Alameda-San-Jose-CA-95126/2069947035_zpid/,"https://www.zillow.com/homes/san-jose,-CA_rb/14_p/"
234,79917921,"7301 Lake Rock Dr, Fort Worth, TX 76179",32.887203,-97.432524,325000,USD,2,3,1744.0 sqft,,325800,1935,0,,FALSE,https://photos.zillowstatic.com/fp/e015d51a55674ab5a795c35c181ff78d-p_e.jpg,House for sale,,https://www.zillow.com/homes/TX_rb/,https://www.zillow.com/homedetails/7301-Lake-Rock-Dr-Fort-Worth-TX-76179/79917921_zpid/,https://www.zillow.com/homes/TX_rb/6_p/
626,251841583,"4048 W 16th Ave, Denver, CO 80204",39.742139,-105.039821,1050000,USD,4,3,2198.0 sqft,,1050000,3584,21,,FALSE,https://photos.zillowstatic.com/fp/5d82b219f2f2ecfb4366c457a133907b-p_e.jpg,Townhouse for sale,Metrowest Real Estate Solutions,"https://www.zillow.com/homes/denver,-co_rb/",https://www.zillow.com/homedetails/4048-W-16th-Ave-Denver-CO-80204/251841583_zpid/,"https://www.zillow.com/homes/denver,-co_rb/16_p/"
82,13337383,"740 Meade St, Denver, CO 80204",39.728996,-105.035871,419900,USD,1,2,600.0 sqft,,296100,1542,1,,FALSE,https://photos.zillowstatic.com/fp/c8cb6bf19a82496b1fc761ff0bea6f08-p_e.jpg,House for sale,Keller Williams Realty Downtown LLC,"https://www.zillow.com/homes/denver,-co_rb/",https://www.zillow.com/homedetails/740-Meade-St-Denver-CO-80204/13337383_zpid/,"https://www.zillow.com/homes/denver,-co_rb/3_p/"
714,31853497,"323 Route 17k, Bloomingburg, NY 12721",41.549854,-74.406483,349999,USD,2,4,2184.0 sqft,,,,0,,FALSE,https://photos.zillowstatic.com/fp/46e4569e23c1a66a16c7e7646755ffe2-p_e.jpg,Coming soon,Listing by: Keller Williams Realty,https://www.zillow.com/homes/NY_rb/,https://www.zillow.com/homedetails/323-Route-17k-Bloomingburg-NY-12721/31853497_zpid/,https://www.zillow.com/homes/NY_rb/18_p/
770,2069785669,"802 Abney Ave, Lufkin, TX 75904",31.346445,-94.731656,385000,USD,4,10,5112.0 sqft,,,993,0,,FALSE,https://photos.zillowstatic.com/fp/4874eb6e5a91abd2ec6a371102c258b8-p_e.jpg,House for sale,Lending Branch Real Estate and Mortgages,https://www.zillow.com/homes/TX_rb/,https://www.zillow.com/homedetails/802-Abney-Ave-Lufkin-TX-75904/2069785669_zpid/,https://www.zillow.com/homes/TX_rb/20_p/
5,16779285,"11254 Caminito Aclara, San Diego, CA 92126",32.923254,-117.170817,1050000,USD,3,4,2023.0 sqft,,925800,4054,-6,,FALSE,https://photos.zillowstatic.com/fp/b7c97d48b0bdb10a35ad3f683eb70b0f-p_e.jpg,Coming soon,Corcoran Global Living,"https://www.zillow.com/homes/San-Diego,-CA_rb/",https://www.zillow.com/homedetails/11254-Caminito-Aclara-San-Diego-CA-92126/16779285_zpid/,"https://www.zillow.com/homes/San-Diego,-CA_rb/"
120,16833171,"7867 Caffey Ln, San Diego, CA 92126",32.898896,-117.154676,774999,USD,2,2,1008.0 sqft,,692400,2699,1,,FALSE,https://photos.zillowstatic.com/fp/28615d8f217d9961051e135f2c462797-p_e.jpg,House for sale,,"https://www.zillow.com/homes/San-Diego,-CA_rb/",https://www.zillow.com/homedetails/7867-Caffey-Ln-San-Diego-CA-92126/16833171_zpid/,"https://www.zillow.com/homes/San-Diego,-CA_rb/3_p/"
796,803919,"2405 36th St, Des Moines, IA 50310",41.616056,-93.665458,99900,USD,1,2,752.0 sqft,,122000,1116,3,,FALSE,https://photos.zillowstatic.com/fp/0c099b048cb40dc593a84d57942701f1-p_e.jpg,House for sale,Keller Williams Realty GDM,https://www.zillow.com/homes/IA_rb/,https://www.zillow.com/homedetails/2405-36th-St-Des-Moines-IA-50310/803919_zpid/,https://www.zillow.com/homes/IA_rb/20_p/
152,120790271,"21670 Saddle Bred Ln, Escondido, CA 92029",33.106495,-117.131045,724900,USD,3,3,1686.0 sqft,,739600,3200,50,,FALSE,https://photos.zillowstatic.com/fp/7b6343eb005d3550f57b5833c39353a9-p_e.jpg,House for sale,,"https://www.zillow.com/homes/Escondido,-CA_rb/",https://www.zillow.com/homedetails/21670-Saddle-Bred-Ln-Escondido-CA-92029/120790271_zpid/,"https://www.zillow.com/homes/Escondido,-CA_rb/4_p/"
209,300200325,"1399 Park Ave #18A, New York, NY 10029",40.791273,-73.948666,1995000,USD,3,3,2018.0 sqft,,,12544,0,,FALSE,https://photos.zillowstatic.com/fp/ddc727508f258b33ffd719e376481e04-p_e.jpg,Condo for sale,Listing by: Corcoran,https://www.zillow.com/homes/NY_rb/,https://www.zillow.com/homedetails/1399-Park-Ave-18A-New-York-NY-10029/300200325_zpid/,https://www.zillow.com/homes/NY_rb/6_p/
429,76832920,"1418 Dorene Blvd, Carter Lake, IA 51510",41.288925,-95.910227,117500,USD,1,2,925.0 sqft,,116400,1132,1,,FALSE,https://photos.zillowstatic.com/fp/5926ffffd68b01a99eaa9ac5800beb23-p_e.jpg,House for sale,,https://www.zillow.com/homes/IA_rb/,https://www.zillow.com/homedetails/1418-Dorene-Blvd-Carter-Lake-IA-51510/76832920_zpid/,https://www.zillow.com/homes/IA_rb/11_p/
185,2072731691,"431 Deer Park Ave, Babylon, NY 11702",40.703984,-73.321562,899000,USD,4,4,4658.0 sqft,,,4426,0,,FALSE,https://photos.zillowstatic.com/fp/768a2b3fa9227768149fe06a75819823-p_e.jpg,House for sale,Listing by: Century 21 Adams Real Estate,https://www.zillow.com/homes/NY_rb/,https://www.zillow.com/homedetails/431-Deer-Park-Ave-Babylon-NY-11702/2072731691_zpid/,https://www.zillow.com/homes/NY_rb/5_p/
316,85980771,"45 Joyful Pl, Leavenworth, WA 98826",47.5796,-120.658859,895000,USD,2,5,3300.0 sqft,,892687,3408,0,,FALSE,https://photos.zillowstatic.com/fp/add944e7e20362ba62d042897cd31754-p_e.jpg,House for sale,,https://www.zillow.com/homes/WA_rb/,https://www.zillow.com/homedetails/45-Joyful-Pl-Leavenworth-WA-98826/85980771_zpid/,https://www.zillow.com/homes/WA_rb/8_p/
447,79843089,"1002 Yarwood Ct, San Jose, CA 95128",37.312417,-121.939481,578800,USD,2,2,922.0 sqft,,578805,2596,46,,FALSE,https://photos.zillowstatic.com/fp/b5e86c2cdf088922505c001e2cb34a2d-p_e.jpg,Condo for sale,,"https://www.zillow.com/homes/san-jose,-CA_rb/",https://www.zillow.com/homedetails/1002-Yarwood-Ct-San-Jose-CA-95128/79843089_zpid/,"https://www.zillow.com/homes/san-jose,-CA_rb/12_p/"
688,13399472,"605 S Alton Way APT 9C, Denver, CO 80247",39.704425,-104.879653,315000,USD,2,2,1550.0 sqft,,315000,2133,24,,FALSE,https://photos.zillowstatic.com/fp/2be4a9d7d34ab4f27defe3d94bfb5b4b-p_e.jpg,Multi-family home for sale,Coldwell Banker Realty 18,"https://www.zillow.com/homes/denver,-co_rb/",https://www.zillow.com/homedetails/605-S-Alton-Way-APT-9C-Denver-CO-80247/13399472_zpid/,"https://www.zillow.com/homes/denver,-co_rb/18_p/"
122,28643440,"507 Scurlock St, Grandview, TX 76050",32.267707,-97.175679,220000,USD,2,2,1456.0 sqft,,113400,1834,0,,FALSE,https://photos.zillowstatic.com/fp/7e249460bca732c47afc10a746cf91f0-p_e.jpg,House for sale,,https://www.zillow.com/homes/TX_rb/,https://www.zillow.com/homedetails/507-Scurlock-St-Grandview-TX-76050/28643440_zpid/,https://www.zillow.com/homes/TX_rb/4_p/
116,2070170835,"2622 Avella Dr, San Diego, CA 92108",32.78107,-117.14638,1475000,USD,4,3,2124.0 sqft,,,4078,1,,FALSE,https://photos.zillowstatic.com/fp/17c13a5d1e879cf63700dd5962bc1a75-p_e.jpg,Condo for sale,,"https://www.zillow.com/homes/San-Diego,-CA_rb/",https://www.zillow.com/homedetails/2622-Avella-Dr-San-Diego-CA-92108/2070170835_zpid/,"https://www.zillow.com/homes/San-Diego,-CA_rb/3_p/"
402,2068384254,"39 Street #145/9, San Diego, CA 92116",32.765951,-117.129148,375000,USD,,,,"3,640 sqft",,,8,,FALSE,https://photos.zillowstatic.com/fp/294f311c74a0aafbc89e1a00d5e9262b-p_e.jpg,Lot / Land for sale,,"https://www.zillow.com/homes/San-Diego,-CA_rb/",https://www.zillow.com/homedetails/39-Street-145-9-San-Diego-CA-92116/2068384254_zpid/,"https://www.zillow.com/homes/San-Diego,-CA_rb/11_p/"
194,19754442,"1662 Canna Ln, San Jose, CA 95124",37.231089,-121.907196,1548800,USD,2,3,1540.0 sqft,,1638238,3949,7,,FALSE,https://photos.zillowstatic.com/fp/c179d1483476456ef0dd29abb487ef23-p_e.jpg,House for sale,,"https://www.zillow.com/homes/san-jose,-CA_rb/",https://www.zillow.com/homedetails/1662-Canna-Ln-San-Jose-CA-95124/19754442_zpid/,"https://www.zillow.com/homes/san-jose,-CA_rb/5_p/"
15,16620726,"2629 Valewood Ave, Carlsbad, CA 92010",33.163764,-117.312317,1250000,USD,3,3,1855.0 sqft,,1045000,3896,1,,FALSE,https://photos.zillowstatic.com/fp/76432f4b4f68071f43ba8c38ad6d1904-p_e.jpg,Coming soon,,"https://www.zillow.com/homes/carlsbad,-CA_rb/",https://www.zillow.com/homedetails/2629-Valewood-Ave-Carlsbad-CA-92010/16620726_zpid/,"https://www.zillow.com/homes/carlsbad,-CA_rb/"
579,17202261,"17636 Azucar Way, San Diego, CA 92127",33.036122,-117.085867,949900,USD,3,3,1444.0 sqft,,941900,3197,16,,FALSE,https://photos.zillowstatic.com/fp/25cd7dcace4ebc00931e341d4a0d5a1d-p_e.jpg,House for sale,,"https://www.zillow.com/homes/San-Diego,-CA_rb/",https://www.zillow.com/homedetails/17636-Azucar-Way-San-Diego-CA-92127/17202261_zpid/,"https://www.zillow.com/homes/San-Diego,-CA_rb/15_p/"
790,28157774,"10611 Fawnview Dr, Houston, TX 77070",29.974863,-95.580004,325000,USD,3,5,3092.0 sqft,,305600,2578,0,,FALSE,https://photos.zillowstatic.com/fp/80dda9c3313a13e8f7e5619bc09cf617-p_e.jpg,House for sale,"Opendoor Brokerage, LLC",https://www.zillow.com/homes/TX_rb/,https://www.zillow.com/homedetails/10611-Fawnview-Dr-Houston-TX-77070/28157774_zpid/,https://www.zillow.com/homes/TX_rb/20_p/
96,19706362,"166 Sweetberry Ct, San Jose, CA 95136",37.272721,-121.836157,1200000,USD,2,3,1983.0 sqft,,1343100,3984,2,,FALSE,https://photos.zillowstatic.com/fp/e2cf4a635578a1afd8a8b837d292596e-p_e.jpg,House for sale,,"https://www.zillow.com/homes/san-jose,-CA_rb/",https://www.zillow.com/homedetails/166-Sweetberry-Ct-San-Jose-CA-95136/19706362_zpid/,"https://www.zillow.com/homes/san-jose,-CA_rb/3_p/"
173,17077838,"2213 Westland Ave, San Diego, CA 92104",32.728659,-117.119721,1499000,USD,3,4,1930.0 sqft,,1494100,4093,2,,FALSE,https://photos.zillowstatic.com/fp/4d64682d8805fbae2f76ab731b631ac4-p_e.jpg,House for sale,,"https://www.zillow.com/homes/San-Diego,-CA_rb/",https://www.zillow.com/homedetails/2213-Westland-Ave-San-Diego-CA-92104/17077838_zpid/,"https://www.zillow.com/homes/San-Diego,-CA_rb/5_p/"
604,13373413,"2708 E Mexico Ave, Denver, CO 80210",39.685494,-104.954493,469000,USD,,,,"6,013 sqft",,1594,18,,FALSE,https://photos.zillowstatic.com/fp/8d3ee768b7f43283900179b58cf69a97-p_e.jpg,Lot / Land for sale,Kentwood Real Estate Cherry Creek,"https://www.zillow.com/homes/denver,-co_rb/",https://www.zillow.com/homedetails/2708-E-Mexico-Ave-Denver-CO-80210/13373413_zpid/,"https://www.zillow.com/homes/denver,-co_rb/16_p/"
413,2067948636,"689 Quincy St #2A, Brooklyn, NY 11221",40.689422,-73.931261,769000,USD,2,2,831.0 sqft,,,,0,,FALSE,https://photos.zillowstatic.com/fp/1e6299d3c4af6c30d73c8fbb9c88f484-p_e.jpg,Condo for sale,Listing by: Douglas Elliman,https://www.zillow.com/homes/NY_rb/,https://www.zillow.com/homedetails/689-Quincy-St-2A-Brooklyn-NY-11221/2067948636_zpid/,https://www.zillow.com/homes/NY_rb/11_p/
133,31145285,"32 Farmstead Ln, Glen Head, NY 11545",40.810976,-73.57343,3895000,USD,6,5,,,3020300,14886,0,,FALSE,https://photos.zillowstatic.com/fp/52d66da7c7a46866e53421e1831f4898-p_e.jpg,House for sale,Listing by: Douglas Elliman Real Estate,https://www.zillow.com/homes/NY_rb/,https://www.zillow.com/homedetails/32-Farmstead-Ln-Glen-Head-NY-11545/31145285_zpid/,https://www.zillow.com/homes/NY_rb/4_p/
741,61002423,"445 Point Lawrence Rd, Olga, WA 98279",48.624337,-122.828051,700000,USD,5,4,2136.0 sqft,,,2009,0,,FALSE,https://photos.zillowstatic.com/fp/6369d801726dcf36095e1f31929272a4-p_e.jpg,Active,,https://www.zillow.com/homes/WA_rb/,https://www.zillow.com/homedetails/445-Point-Lawrence-Rd-Olga-WA-98279/61002423_zpid/,https://www.zillow.com/homes/WA_rb/19_p/
551,2070256136,"620 Hermitage Ln #620, San Jose, CA 95134",37.416159,-121.94479,283000,USD,3,3,1334.0 sqft,,,3134,119,,FALSE,https://photos.zillowstatic.com/fp/d1f6f75cfb19becaf283b9aebe69fe62-p_e.jpg,Home for sale,,"https://www.zillow.com/homes/san-jose,-CA_rb/",https://www.zillow.com/homedetails/620-Hermitage-Ln-620-San-Jose-CA-95134/2070256136_zpid/,"https://www.zillow.com/homes/san-jose,-CA_rb/14_p/"
583,17119377,"7141 Peter Pan Ave, San Diego, CA 92114",32.701673,-117.043724,630000,USD,2,3,1130.0 sqft,,608600,2684,16,,FALSE,https://photos.zillowstatic.com/fp/cf18fae12460ce565fd02bd5caa848b6-p_e.jpg,House for sale,Keller Williams Realty,"https://www.zillow.com/homes/San-Diego,-CA_rb/",https://www.zillow.com/homedetails/7141-Peter-Pan-Ave-San-Diego-CA-92114/17119377_zpid/,"https://www.zillow.com/homes/San-Diego,-CA_rb/15_p/"
693,26808154,"3362 Royal Ln, Dallas, TX 75229",32.894807,-96.864891,375000,USD,2,4,2017.0 sqft,,447700,2728,0,,FALSE,"https://maps.googleapis.com/maps/api/staticmap?mobile=false&sensor=true&maptype=satellite&size=575x242&zoom=17&center=32.894807,-96.864891&key=AIzaSyBJsNQO5ZeG-XAbqqWLKwG08fWITSxg33w&signature=P81CdJiFSZNwFNvoM9aaLAk9uCI=",House for sale,,https://www.zillow.com/homes/TX_rb/,https://www.zillow.com/homedetails/3362-Royal-Ln-Dallas-TX-75229/26808154_zpid/,https://www.zillow.com/homes/TX_rb/18_p/
126,29866979,"8110 Jackman Hill Rd, Ellicottville, NY 14171",42.351261,-78.6686,549000,USD,3,4,2088.0 sqft,,,,0,,FALSE,https://photos.zillowstatic.com/fp/234c55c10d494c5ac1e82d8c9500f550-p_e.jpg,House for sale,Listing by: ERA Team VP Real Estate,https://www.zillow.com/homes/NY_rb/,https://www.zillow.com/homedetails/8110-Jackman-Hill-Rd-Ellicottville-NY-14171/29866979_zpid/,https://www.zillow.com/homes/NY_rb/4_p/
694,122187687,"4264 Overlook Ct, Gig Harbor, WA 98332",47.36029,-122.596809,775000,USD,3,4,2502.0 sqft,,690800,3200,0,,FALSE,https://photos.zillowstatic.com/fp/4cf59109cbbdf10f4a106ccc04a0d0b5-p_e.jpg,Active,,https://www.zillow.com/homes/WA_rb/,https://www.zillow.com/homedetails/4264-Overlook-Ct-Gig-Harbor-WA-98332/122187687_zpid/,https://www.zillow.com/homes/WA_rb/18_p/
677,17161786,"961 14th St, San Diego, CA 92154",32.579532,-117.102853,818900,USD,2,3,1422.0 sqft,,822491,3438,22,,TRUE,https://photos.zillowstatic.com/fp/6c1c67c7f40beb14923b6aabea26ca20-p_e.jpg,House for sale,,"https://www.zillow.com/homes/San-Diego,-CA_rb/",https://www.zillow.com/homedetails/961-14th-St-San-Diego-CA-92154/17161786_zpid/,"https://www.zillow.com/homes/San-Diego,-CA_rb/17_p/"
662,49000671,"27447 145th Ave SE, Kent, WA 98042",47.355282,-122.148502,529000,USD,3,3,1760.0 sqft,,551200,2499,0,,FALSE,https://photos.zillowstatic.com/fp/1417886c0527b002d09936adfb532db6-p_e.jpg,Active,,https://www.zillow.com/homes/WA_rb/,https://www.zillow.com/homedetails/27447-145th-Ave-SE-Kent-WA-98042/49000671_zpid/,https://www.zillow.com/homes/WA_rb/17_p/
17,82929742,"635 13th St UNIT 36, San Diego, CA 92154",32.585319,-117.104923,499900,USD,3,2,1219.0 sqft,,432400,2497,0,,FALSE,https://photos.zillowstatic.com/fp/2407243575c56f0d2768b5207c3163cf-p_e.jpg,Coming soon,,"https://www.zillow.com/homes/San-Diego,-CA_rb/",https://www.zillow.com/homedetails/635-13th-St-UNIT-36-San-Diego-CA-92154/82929742_zpid/,"https://www.zillow.com/homes/San-Diego,-CA_rb/"
597,29341212,"3403 Westlake Dr, Austin, TX 78746",30.321201,-97.779055,4000000,USD,4,5,2258.0 sqft,,,,0,,FALSE,https://photos.zillowstatic.com/fp/d7dba39a372bb888e5afeac31ac830ff-p_e.jpg,Active,Realty Austin,https://www.zillow.com/homes/TX_rb/,https://www.zillow.com/homedetails/3403-Westlake-Dr-Austin-TX-78746/29341212_zpid/,https://www.zillow.com/homes/TX_rb/15_p/
707,61945694,"67 G St SE, Ephrata, WA 98823",47.31688,-119.541326,187500,USD,1,2,760.0 sqft,,122400,916,0,,FALSE,https://photos.zillowstatic.com/fp/3ee74dc61e3fb93bbbd59472955e6a7f-p_e.jpg,Active,,https://www.zillow.com/homes/WA_rb/,https://www.zillow.com/homedetails/67-G-St-SE-Ephrata-WA-98823/61945694_zpid/,https://www.zillow.com/homes/WA_rb/18_p/
11,65790977,"923 A St, Vader, WA 98593",46.398686,-122.960654,250000,USD,1,3,1296.0 sqft,,,,0,,FALSE,https://photos.zillowstatic.com/fp/fb535e19b3b737f16a841bfc7e6aa2b3-p_e.jpg,Active,,https://www.zillow.com/homes/WA_rb/,https://www.zillow.com/homedetails/923-A-St-Vader-WA-98593/65790977_zpid/,https://www.zillow.com/homes/WA_rb/
476,2069995000,"2150 Almaden Rd #41, San Jose, CA 95125",37.29561,-121.880093,99900,USD,2,2,900.0 sqft,,,2457,53,,FALSE,https://photos.zillowstatic.com/fp/19caa28784f2e6fbf34b0776d32980ec-p_e.jpg,Home for sale,,"https://www.zillow.com/homes/san-jose,-CA_rb/",https://www.zillow.com/homedetails/2150-Almaden-Rd-41-San-Jose-CA-95125/2069995000_zpid/,"https://www.zillow.com/homes/san-jose,-CA_rb/12_p/"
114,16620485,"3509 Providence Ln, Carlsbad, CA 92010",33.168719,-117.302099,649900,USD,2,3,1362.0 sqft,,660200,3069,93,,FALSE,https://photos.zillowstatic.com/fp/e92b451aa776d51682f3447782718c8f-p_e.jpg,Condo for sale,Onpoint Realty Services,"https://www.zillow.com/homes/carlsbad,-CA_rb/",https://www.zillow.com/homedetails/3509-Providence-Ln-Carlsbad-CA-92010/16620485_zpid/,"https://www.zillow.com/homes/carlsbad,-CA_rb/3_p/"
323,49296562,"523 143rd St S, Tacoma, WA 98444",47.127319,-122.439525,459000,USD,2,4,2808.0 sqft,,527900,2966,0,,FALSE,https://photos.zillowstatic.com/fp/cb6e2340f9e71eeb7fb2f8daf6f14d81-p_e.jpg,Active,,https://www.zillow.com/homes/WA_rb/,https://www.zillow.com/homedetails/523-143rd-St-S-Tacoma-WA-98444/49296562_zpid/,https://www.zillow.com/homes/WA_rb/9_p/
548,16857049,"5639 Desert View Dr, La Jolla, CA 92037",32.823974,-117.233901,1995000,USD,4,4,3625.0 sqft,,2039700,7411,14,,FALSE,https://photos.zillowstatic.com/fp/404d31e1281702c1a7921462f8833504-p_e.jpg,House for sale,,"https://www.zillow.com/homes/San-Diego,-CA_rb/",https://www.zillow.com/homedetails/5639-Desert-View-Dr-La-Jolla-CA-92037/16857049_zpid/,"https://www.zillow.com/homes/San-Diego,-CA_rb/14_p/"
210,2070093154,"9550 Niya Way, Valley Center, CA 92082",33.270885,-117.121696,498000,USD,,,,6.9 acres,,1694,114,,FALSE,https://photos.zillowstatic.com/fp/8141dab9455f3e65add452934fea6a08-p_e.jpg,Lot / Land for sale,Cabrillo Team Realty,"https://www.zillow.com/homes/Escondido,-CA_rb/",https://www.zillow.com/homedetails/9550-Niya-Way-Valley-Center-CA-92082/2070093154_zpid/,"https://www.zillow.com/homes/Escondido,-CA_rb/6_p/"
387,16909876,"5209 Foothill Blvd, San Diego, CA 92109",32.810944,-117.249743,1690000,USD,2,3,1588.0 sqft,,1772900,4891,8,,FALSE,https://photos.zillowstatic.com/fp/92a9fa0e3572786eb4f72be689d164c4-p_e.jpg,House for sale,,"https://www.zillow.com/homes/San-Diego,-CA_rb/",https://www.zillow.com/homedetails/5209-Foothill-Blvd-San-Diego-CA-92109/16909876_zpid/,"https://www.zillow.com/homes/San-Diego,-CA_rb/10_p/"
209,82930368,"1110 Hilo Gln, Escondido, CA 92026",33.148567,-117.109668,395000,USD,2,2,1820.0 sqft,,399100,3200,113,,FALSE,https://photos.zillowstatic.com/fp/26445096f746624324fa1dc798ca8543-p_e.jpg,Home for sale,Pacific Sun Properties,"https://www.zillow.com/homes/Escondido,-CA_rb/",https://www.zillow.com/homedetails/1110-Hilo-Gln-Escondido-CA-92026/82930368_zpid/,"https://www.zillow.com/homes/Escondido,-CA_rb/6_p/"
108,86879884,"1527 Mamie Eisenhower Ave, Boone, IA 50036",42.059965,-93.868692,74900,USD,1,2,1026.0 sqft,,74448,893,0,,FALSE,https://photos.zillowstatic.com/fp/7cddfdc821659f584826259f64659e3f-p_e.jpg,House for sale,,https://www.zillow.com/homes/IA_rb/,https://www.zillow.com/homedetails/1527-Mamie-Eisenhower-Ave-Boone-IA-50036/86879884_zpid/,https://www.zillow.com/homes/IA_rb/3_p/
177,19722230,"259 N Capitol Ave UNIT 225, San Jose, CA 95127",37.368551,-121.841983,488000,USD,2,2,955.0 sqft,,502901,2400,7,,FALSE,https://photos.zillowstatic.com/fp/d31ca97e72899516741fb87e647d19a7-p_e.jpg,Condo for sale,,"https://www.zillow.com/homes/san-jose,-CA_rb/",https://www.zillow.com/homedetails/259-N-Capitol-Ave-UNIT-225-San-Jose-CA-95127/19722230_zpid/,"https://www.zillow.com/homes/san-jose,-CA_rb/5_p/"
788,16858551,"1379 Caminito Arriata, La Jolla, CA 92037",32.814525,-117.249786,2060000,USD,4,3,2804.0 sqft,,2102100,7246,30,,FALSE,https://photos.zillowstatic.com/fp/e966f5cf9a098c926484faca8e98f928-p_e.jpg,House for sale,Dalton Real Estate,"https://www.zillow.com/homes/San-Diego,-CA_rb/",https://www.zillow.com/homedetails/1379-Caminito-Arriata-La-Jolla-CA-92037/16858551_zpid/,"https://www.zillow.com/homes/San-Diego,-CA_rb/20_p/"
76,76895419,"1310 25th Ave N, Fort Dodge, IA 50501",42.530415,-94.180272,134250,USD,1.8,3,1364.0 sqft,,129520,929,0,,FALSE,https://photos.zillowstatic.com/fp/e20ba3f758eb05b4ff665ed11c7ce742-p_e.jpg,House for sale,,https://www.zillow.com/homes/IA_rb/,https://www.zillow.com/homedetails/1310-25th-Ave-N-Fort-Dodge-IA-50501/76895419_zpid/,https://www.zillow.com/homes/IA_rb/2_p/
247,16919743,"3550 Ruffin Rd UNIT 263, San Diego, CA 92123",32.806692,-117.129709,460000,USD,2,3,952.0 sqft,,,2840,4,,FALSE,https://photos.zillowstatic.com/fp/487889ff1939cb5cdb9660f10e84b348-p_e.jpg,Condo for sale,eSmartrealty,"https://www.zillow.com/homes/San-Diego,-CA_rb/",https://www.zillow.com/homedetails/3550-Ruffin-Rd-UNIT-263-San-Diego-CA-92123/16919743_zpid/,"https://www.zillow.com/homes/San-Diego,-CA_rb/7_p/"
437,64589912,"3932 9th Ave UNIT 7, San Diego, CA 92103",32.749043,-117.156659,419000,USD,1,1,535.0 sqft,,365500,1880,9,,FALSE,https://photos.zillowstatic.com/fp/2c4e5dfa597b584591373d619e79ed35-p_e.jpg,Condo for sale,,"https://www.zillow.com/homes/San-Diego,-CA_rb/",https://www.zillow.com/homedetails/3932-9th-Ave-UNIT-7-San-Diego-CA-92103/64589912_zpid/,"https://www.zillow.com/homes/San-Diego,-CA_rb/11_p/"
660,13320660,"2445 N Humboldt St, Denver, CO 80205",39.752857,-104.969982,1275000,USD,4,5,3188.0 sqft,,1311900,4396,22,,FALSE,https://photos.zillowstatic.com/fp/eb55bb8e5c755f477114a626b0f56caa-p_e.jpg,House for sale,Redfin Corporation,"https://www.zillow.com/homes/denver,-co_rb/",https://www.zillow.com/homedetails/2445-N-Humboldt-St-Denver-CO-80205/13320660_zpid/,"https://www.zillow.com/homes/denver,-co_rb/17_p/"
69,16969477,"3217 Columbia St APT 8, San Diego, CA 92103",32.737194,-117.174597,799000,USD,2,2,1412.0 sqft,,773300,3733,1,,FALSE,https://photos.zillowstatic.com/fp/10c5016af8d912bd9016cd8b71120541-p_e.jpg,Condo for sale,,"https://www.zillow.com/homes/San-Diego,-CA_rb/",https://www.zillow.com/homedetails/3217-Columbia-St-APT-8-San-Diego-CA-92103/16969477_zpid/,"https://www.zillow.com/homes/San-Diego,-CA_rb/2_p/"
580,2072820264,"737 S 2nd St #3, San Jose, CA 95113",37.325486,-121.881406,1199000,USD,4,3,1800.0 sqft,,1199122,3750,213,,FALSE,https://photos.zillowstatic.com/fp/c9989d3c45de7f9282db8ac902a47ac5-p_e.jpg,New construction,,"https://www.zillow.com/homes/san-jose,-CA_rb/",https://www.zillow.com/homedetails/737-S-2nd-St-3-San-Jose-CA-95113/2072820264_zpid/,"https://www.zillow.com/homes/san-jose,-CA_rb/15_p/"
176,2067944611,"1113 152nd Street Ct E, Tacoma, WA 98445",47.118608,-122.415027,365000,USD,1,3,1152.0 sqft,,,,0,,FALSE,https://photos.zillowstatic.com/fp/50e74c5c56343aa3ee8221ef07807df5-p_e.jpg,Active,,https://www.zillow.com/homes/WA_rb/,https://www.zillow.com/homedetails/1113-152nd-Street-Ct-E-Tacoma-WA-98445/2067944611_zpid/,https://www.zillow.com/homes/WA_rb/5_p/
706,76766140,"702 W Park Rd, Iowa City, IA 52246",41.671902,-91.548823,400000,USD,3,4,2442.0 sqft,,395100,1964,3,,FALSE,https://photos.zillowstatic.com/fp/fd31a6fd9784298c761c627f34105eea-p_e.jpg,House for sale,,https://www.zillow.com/homes/IA_rb/,https://www.zillow.com/homedetails/702-W-Park-Rd-Iowa-City-IA-52246/76766140_zpid/,https://www.zillow.com/homes/IA_rb/18_p/
100,2067944862,"144 Holiday Dr #144, Woodbury, NY 11797",40.812739,-73.474914,599000,USD,3,2,,,,,0,,FALSE,https://photos.zillowstatic.com/fp/c48cc86a2b889d3eae626b7f609ffa46-p_e.jpg,Coming soon,Listing by: Barbara Nadboy Realty,https://www.zillow.com/homes/NY_rb/,https://www.zillow.com/homedetails/144-Holiday-Dr-144-Woodbury-NY-11797/2067944862_zpid/,https://www.zillow.com/homes/NY_rb/3_p/
535,87031597,"519 Main St, Muscatine, IA 52761",41.416293,-91.058504,76900,USD,1,2,1452.0 sqft,,74671,771,2,,FALSE,https://photos.zillowstatic.com/fp/7fe0c6c99f964df892da1600cb7bf208-p_e.jpg,House for sale,,https://www.zillow.com/homes/IA_rb/,https://www.zillow.com/homedetails/519-Main-St-Muscatine-IA-52761/87031597_zpid/,https://www.zillow.com/homes/IA_rb/14_p/
594,2067950298,"133 Newby Creek Rd #B, Twisp, WA 98856",48.378368,-120.2554,365000,USD,1,1,771.0 sqft,,,,0,,FALSE,https://photos.zillowstatic.com/fp/fa593e1e04392c8d5f98f9e7f0e49491-p_e.jpg,Active,,https://www.zillow.com/homes/WA_rb/,https://www.zillow.com/homedetails/133-Newby-Creek-Rd-B-Twisp-WA-98856/2067950298_zpid/,https://www.zillow.com/homes/WA_rb/15_p/
631,16787610,"8451 Westmore Rd APT 110, San Diego, CA 92126",32.917285,-117.1416,515900,USD,2,2,866.0 sqft,,532541,2281,19,,TRUE,https://photos.zillowstatic.com/fp/619b599fd6cd91f28384edcd0abdc1a5-p_e.jpg,Condo for sale,,"https://www.zillow.com/homes/San-Diego,-CA_rb/",https://www.zillow.com/homedetails/8451-Westmore-Rd-APT-110-San-Diego-CA-92126/16787610_zpid/,"https://www.zillow.com/homes/San-Diego,-CA_rb/16_p/"
133,859850,"200 Jordan Dr, West Des Moines, IA 50265",41.573012,-93.749948,265000,USD,3,3,1144.0 sqft,,261000,1599,0,,FALSE,https://photos.zillowstatic.com/fp/ec46810b0cbf8056d977e94abf5fe13d-p_e.jpg,House for sale,RE/MAX Concepts,https://www.zillow.com/homes/IA_rb/,https://www.zillow.com/homedetails/200-Jordan-Dr-West-Des-Moines-IA-50265/859850_zpid/,https://www.zillow.com/homes/IA_rb/4_p/
552,79847650,"967 Catkin Ct, San Jose, CA 95128",37.312987,-121.938952,416000,USD,1,1,658.0 sqft,,415223,2190,120,,FALSE,https://photos.zillowstatic.com/fp/00e186dc7457cb954d899b24e9c10cd4-p_e.jpg,Condo for sale,,"https://www.zillow.com/homes/san-jose,-CA_rb/",https://www.zillow.com/homedetails/967-Catkin-Ct-San-Jose-CA-95128/79847650_zpid/,"https://www.zillow.com/homes/san-jose,-CA_rb/14_p/"
506,63777063,"1501 Front St UNIT 514, San Diego, CA 92101",32.721431,-117.164306,514888,USD,1,1,845.0 sqft,,514900,2490,13,,FALSE,https://photos.zillowstatic.com/fp/e3e498c41dc7aa97ffbe81c2ab2e7ffa-p_e.jpg,Condo for sale,,"https://www.zillow.com/homes/San-Diego,-CA_rb/",https://www.zillow.com/homedetails/1501-Front-St-UNIT-514-San-Diego-CA-92101/63777063_zpid/,"https://www.zillow.com/homes/San-Diego,-CA_rb/13_p/"
92,2095423524,"1538 Orpheus Ave, Encinitas, CA 92024",33.077616,-117.296788,270000,USD,,,,0.33 acres,,2694,1341,,FALSE,https://photos.zillowstatic.com/fp/f16056d809fedad46dc707ca4d8fdbcd-p_e.jpg,Lot / Land for sale,HomeCoin.com,"https://www.zillow.com/homes/Encinitas,-CA_rb/",https://www.zillow.com/homedetails/1538-Orpheus-Ave-Encinitas-CA-92024/2095423524_zpid/,"https://www.zillow.com/homes/Encinitas,-CA_rb/3_p/"
393,250642065,"1035 Giacomo Ln UNIT 5, San Jose, CA 95131",37.372388,-121.878327,886000,USD,2,2,1371.0 sqft,,933004,3300,29,,FALSE,https://photos.zillowstatic.com/fp/d97243d4922b87e7f959799ae32d90c2-p_e.jpg,Condo for sale,,"https://www.zillow.com/homes/san-jose,-CA_rb/",https://www.zillow.com/homedetails/1035-Giacomo-Ln-UNIT-5-San-Jose-CA-95131/250642065_zpid/,"https://www.zillow.com/homes/san-jose,-CA_rb/10_p/"
121,13373888,"3740 E Iowa Ave, Denver, CO 80210",39.687359,-104.943338,750000,USD,2,3,2055.0 sqft,,785800,2499,1,,FALSE,https://photos.zillowstatic.com/fp/ab925792f9a15a1edae372f67f50ba3a-p_e.jpg,House for sale,Keller Williams Preferred Realty,"https://www.zillow.com/homes/denver,-co_rb/",https://www.zillow.com/homedetails/3740-E-Iowa-Ave-Denver-CO-80210/13373888_zpid/,"https://www.zillow.com/homes/denver,-co_rb/4_p/"
351,19820260,"519 Cheyenne Ln, San Jose, CA 95123",37.245748,-121.834679,1369000,USD,2,4,1669.0 sqft,,1512877,3919,22,,FALSE,https://photos.zillowstatic.com/fp/ca89e2525b9e4d2f477cfc87bc5a9b45-p_e.jpg,House for sale,,"https://www.zillow.com/homes/san-jose,-CA_rb/",https://www.zillow.com/homedetails/519-Cheyenne-Ln-San-Jose-CA-95123/19820260_zpid/,"https://www.zillow.com/homes/san-jose,-CA_rb/9_p/"
145,69302520,"801 S Winchester Blvd APT 2303, San Jose, CA 95128",37.312876,-121.950553,818000,USD,2,2,986.0 sqft,,847700,2648,3,,FALSE,https://photos.zillowstatic.com/fp/8feaaf4157ebb819e7dcb812cc8db8e7-p_e.jpg,Condo for sale,,"https://www.zillow.com/homes/san-jose,-CA_rb/",https://www.zillow.com/homedetails/801-S-Winchester-Blvd-APT-2303-San-Jose-CA-95128/69302520_zpid/,"https://www.zillow.com/homes/san-jose,-CA_rb/4_p/"
675,2068331587,"7546 43rd Ave S #B, Seattle, WA 98118",47.533854,-122.279027,699000,USD,3,3,1349.0 sqft,,,,0,,FALSE,https://photos.zillowstatic.com/fp/e59dd2ffc081606b4ce8f97897ab2f49-p_e.jpg,Active,,https://www.zillow.com/homes/WA_rb/,https://www.zillow.com/homedetails/7546-43rd-Ave-S-B-Seattle-WA-98118/2068331587_zpid/,https://www.zillow.com/homes/WA_rb/17_p/
608,30061888,"456 E Handsome Brook Rd, Franklin, NY 13775",42.32895,-75.154851,425000,USD,2,3,2156.0 sqft,,348600,2765,0,,FALSE,https://photos.zillowstatic.com/fp/aa3449ee06f2ec60fb12829a295fe750-p_e.jpg,House for sale,Listing by: Coldwell Banker Timberland Properties,https://www.zillow.com/homes/NY_rb/,https://www.zillow.com/homedetails/456-E-Handsome-Brook-Rd-Franklin-NY-13775/30061888_zpid/,https://www.zillow.com/homes/NY_rb/16_p/
410,19592208,"984 La Barbera Dr, San Jose, CA 95126",37.308254,-121.918995,579950,USD,1,1,808.0 sqft,,598408,2221,34,,FALSE,https://photos.zillowstatic.com/fp/8c5cda0796e64340ece3559dcd92eab7-p_e.jpg,Condo for sale,,"https://www.zillow.com/homes/san-jose,-CA_rb/",https://www.zillow.com/homedetails/984-La-Barbera-Dr-San-Jose-CA-95126/19592208_zpid/,"https://www.zillow.com/homes/san-jose,-CA_rb/11_p/"
16,233689023,"5889 Bates Rd E, Odessa, WA 99159",47.305262,-118.853306,308500,USD,1,3,1523.0 sqft,,208600,1566,0,,FALSE,https://photos.zillowstatic.com/fp/51b7a1e499473e2333bd9d4f5eff1590-p_e.jpg,Active,,https://www.zillow.com/homes/WA_rb/,https://www.zillow.com/homedetails/5889-Bates-Rd-E-Odessa-WA-99159/233689023_zpid/,https://www.zillow.com/homes/WA_rb/
180,89016903,"4644 Natalee Dr SE, Lacey, WA 98503",47.006791,-122.82588,435000,USD,3,3,1888.0 sqft,,478200,2497,0,,FALSE,https://photos.zillowstatic.com/fp/2b4c2f2bee60a86e45516622210a2158-p_e.jpg,Active,,https://www.zillow.com/homes/WA_rb/,https://www.zillow.com/homedetails/4644-Natalee-Dr-SE-Lacey-WA-98503/89016903_zpid/,https://www.zillow.com/homes/WA_rb/5_p/
610,70581310,"16910 NE 13th Ave, Ridgefield, WA 98642",45.744267,-122.659236,465000,USD,3,4,2114.0 sqft,,,,0,,FALSE,https://photos.zillowstatic.com/fp/0ceba7ab20d284d5ea81df3a094d0f45-p_e.jpg,Active,,https://www.zillow.com/homes/WA_rb/,https://www.zillow.com/homedetails/16910-NE-13th-Ave-Ridgefield-WA-98642/70581310_zpid/,https://www.zillow.com/homes/WA_rb/16_p/
36,16713825,"354 Neptune Ave, Encinitas, CA 92024",33.055135,-117.3007,5895000,USD,4,4,1784.0 sqft,,5769300,9321,18,,FALSE,https://photos.zillowstatic.com/fp/4136fcf4044abf96ef4068493b4de681-p_e.jpg,House for sale,Pacific Sotheby's Int'l Realty,"https://www.zillow.com/homes/Encinitas,-CA_rb/",https://www.zillow.com/homedetails/354-Neptune-Ave-Encinitas-CA-92024/16713825_zpid/,"https://www.zillow.com/homes/Encinitas,-CA_rb/"
770,23251820,"15207 SE 24th St, Vancouver, WA 98683",45.60351,-122.514666,525000,USD,2,3,1786.0 sqft,,534400,2350,0,,FALSE,https://photos.zillowstatic.com/fp/09275943bbcddb74d79f6f23de0fea8d-p_e.jpg,Active,,https://www.zillow.com/homes/WA_rb/,https://www.zillow.com/homedetails/15207-SE-24th-St-Vancouver-WA-98683/23251820_zpid/,https://www.zillow.com/homes/WA_rb/20_p/
35,16713887,"372 La Veta Ave, Encinitas, CA 92024",33.055607,-117.299046,3875000,USD,2,2,892.0 sqft,,3829780,3499,17,,FALSE,https://photos.zillowstatic.com/fp/26fe593d1091f771623d8db1de35baad-p_e.jpg,House for sale,Berkshire Hathaway HomeService,"https://www.zillow.com/homes/Encinitas,-CA_rb/",https://www.zillow.com/homedetails/372-La-Veta-Ave-Encinitas-CA-92024/16713887_zpid/,"https://www.zillow.com/homes/Encinitas,-CA_rb/"
525,29851904,"3249 Kingsbridge Ave, Bronx, NY 10463",40.88233,-73.904619,850000,USD,2,4,1715.0 sqft,,853700,1961,0,,FALSE,https://photos.zillowstatic.com/fp/de90aaa0d1907dcc164241119d7ab977-p_e.jpg,House for sale,Listing by: Re/Max In The City,https://www.zillow.com/homes/NY_rb/,https://www.zillow.com/homedetails/3249-Kingsbridge-Ave-Bronx-NY-10463/29851904_zpid/,https://www.zillow.com/homes/NY_rb/14_p/
647,13373869,"1888 S Jackson St APT 1001, Denver, CO 80210",39.682218,-104.942821,400000,USD,2,2,1495.0 sqft,,400000,2395,22,,FALSE,https://photos.zillowstatic.com/fp/75856826cbfe151e41f46e0c89874166-p_e.jpg,Condo for sale,Keller Williams Integrity Real Estate LLC,"https://www.zillow.com/homes/denver,-co_rb/",https://www.zillow.com/homedetails/1888-S-Jackson-St-APT-1001-Denver-CO-80210/13373869_zpid/,"https://www.zillow.com/homes/denver,-co_rb/17_p/"
465,32623567,"525 Lombard St, North Babylon, NY 11703",40.747626,-73.322567,679000,USD,3,5,2350.0 sqft,,519600,3294,0,,FALSE,https://photos.zillowstatic.com/fp/5c417078795c3d22f3fad66e6e687311-p_e.jpg,House for sale,Listing by: World Prop Intl Sea to Sky,https://www.zillow.com/homes/NY_rb/,https://www.zillow.com/homedetails/525-Lombard-St-North-Babylon-NY-11703/32623567_zpid/,https://www.zillow.com/homes/NY_rb/12_p/
10,16713158,"846 Clark Ave, Encinitas, CA 92024",33.064152,-117.289877,1200000,USD,2,3,1115.0 sqft,,1018600,3940,2,,FALSE,https://photos.zillowstatic.com/fp/110486b9b5b515e0170d3b970f5797e0-p_e.jpg,House for sale,,"https://www.zillow.com/homes/Encinitas,-CA_rb/",https://www.zillow.com/homedetails/846-Clark-Ave-Encinitas-CA-92024/16713158_zpid/,"https://www.zillow.com/homes/Encinitas,-CA_rb/"
91,250087117,"1534 Orpheus Ave, Encinitas, CA 92024",33.077433,-117.297166,270000,USD,,,,0.36 acres,,2687,1341,,FALSE,https://photos.zillowstatic.com/fp/90cb66faea9e4188dd69c5f0fa0535ce-p_e.jpg,Lot / Land for sale,HomeCoin.com,"https://www.zillow.com/homes/Encinitas,-CA_rb/",https://www.zillow.com/homedetails/1534-Orpheus-Ave-Encinitas-CA-92024/250087117_zpid/,"https://www.zillow.com/homes/Encinitas,-CA_rb/3_p/"
700,2068481179,"728-730 Bush St, San Diego, CA 92103",32.747348,-117.172706,2995000,USD,6,6,1810.0 sqft,,,,23,,FALSE,https://photos.zillowstatic.com/fp/8db8290283569131ec9f84590c411bb2-p_e.jpg,Multi-family home for sale,,"https://www.zillow.com/homes/San-Diego,-CA_rb/",https://www.zillow.com/homedetails/728-730-Bush-St-San-Diego-CA-92103/2068481179_zpid/,"https://www.zillow.com/homes/San-Diego,-CA_rb/18_p/"
10,2067947053,"120 S Cardinal Dr APT 10, Clarinda, IA 51632",40.738012,-95.048079,249000,USD,3,3,2884.0 sqft,,,,0,,FALSE,https://photos.zillowstatic.com/fp/885e4c02f04245e9c3f1ab1962663eeb-p_e.jpg,Townhouse for sale,Thomas Realty,https://www.zillow.com/homes/IA_rb/,https://www.zillow.com/homedetails/120-S-Cardinal-Dr-APT-10-Clarinda-IA-51632/2067947053_zpid/,https://www.zillow.com/homes/IA_rb/
271,54151626,"213 Huguenot St, New Paltz, NY 12561",41.763697,-74.085129,629000,USD,3,3,1760.0 sqft,,629000,3399,0,,FALSE,https://photos.zillowstatic.com/fp/5f9cd0b3050d288dc30c072e191514f5-p_e.jpg,House for sale,"Listing by: eXp Realty, LLC",https://www.zillow.com/homes/NY_rb/,https://www.zillow.com/homedetails/213-Huguenot-St-New-Paltz-NY-12561/54151626_zpid/,https://www.zillow.com/homes/NY_rb/7_p/
669,16983152,"7008 Ballinger Ave, San Diego, CA 92119",32.809984,-117.0188,899000,USD,2,3,1678.0 sqft,,899000,3523,22,,FALSE,https://photos.zillowstatic.com/fp/c05c831aa8104f19e2d9d1b8f8c34793-p_e.jpg,House for sale,Acropolis Enterprise Inc,"https://www.zillow.com/homes/San-Diego,-CA_rb/",https://www.zillow.com/homedetails/7008-Ballinger-Ave-San-Diego-CA-92119/16983152_zpid/,"https://www.zillow.com/homes/San-Diego,-CA_rb/17_p/"
565,19725301,"1414 June Ave, San Jose, CA 95122",37.334239,-121.842034,859000,USD,2,3,1200.0 sqft,,899700,3449,156,,FALSE,https://photos.zillowstatic.com/fp/16175d8bf95a91987110e8db8cb2061d-p_e.jpg,House for sale,,"https://www.zillow.com/homes/san-jose,-CA_rb/",https://www.zillow.com/homedetails/1414-June-Ave-San-Jose-CA-95122/19725301_zpid/,"https://www.zillow.com/homes/san-jose,-CA_rb/15_p/"
106,99518592,"2300 E Valley Pkwy SPACE 121, Escondido, CA 92027",33.142041,-117.047774,69900,USD,1,1,756.0 sqft,,113400,1862,20,,FALSE,https://photos.zillowstatic.com/fp/4bb53a18e3370c96905a18e536ae8afd-p_e.jpg,Home for sale,,"https://www.zillow.com/homes/Escondido,-CA_rb/",https://www.zillow.com/homedetails/2300-E-Valley-Pkwy-SPACE-121-Escondido-CA-92027/99518592_zpid/,"https://www.zillow.com/homes/Escondido,-CA_rb/3_p/"
92,16820529,"11320 Ironwood Rd, San Diego, CA 92131",32.907255,-117.090392,1072000,USD,2,3,1384.0 sqft,,1009500,3247,1,,FALSE,https://photos.zillowstatic.com/fp/2e72ec4806940ead572044ed3a6bf412-p_e.jpg,House for sale,Keller Williams Realty,"https://www.zillow.com/homes/San-Diego,-CA_rb/",https://www.zillow.com/homedetails/11320-Ironwood-Rd-San-Diego-CA-92131/16820529_zpid/,"https://www.zillow.com/homes/San-Diego,-CA_rb/3_p/"
409,153404091,"2268 Berkeley Way, San Jose, CA 95116",37.353111,-121.839195,500000,USD,1,3,900.0 sqft,,,2588,34,,FALSE,https://photos.zillowstatic.com/fp/9c350436d660810637e9af670b268c1d-p_e.jpg,Multi-family home for sale,,"https://www.zillow.com/homes/san-jose,-CA_rb/",https://www.zillow.com/homedetails/2268-Berkeley-Way-San-Jose-CA-95116/153404091_zpid/,"https://www.zillow.com/homes/san-jose,-CA_rb/11_p/"
21,16763029,"119 10th St, Del Mar, CA 92014",32.953414,-117.265808,11265000,USD,8,6,5574.0 sqft,,10676000,33714,106,,FALSE,https://photos.zillowstatic.com/fp/173887ef712663fb01d21567f78172ef-p_e.jpg,House for sale,,"https://www.zillow.com/homes/Del-Mar,-CA_rb/",https://www.zillow.com/homedetails/119-10th-St-Del-Mar-CA-92014/16763029_zpid/,"https://www.zillow.com/homes/Del-Mar,-CA_rb/"
291,13416241,"6454 E Bates Ave, Denver, CO 80222",39.664477,-104.91497,399900,USD,3,3,1509.0 sqft,,399900,2142,3,,FALSE,https://photos.zillowstatic.com/fp/6f8ac5c0f35e61959ddfecca33116c31-p_e.jpg,Townhouse for sale,Coldwell Banker Realty 24,"https://www.zillow.com/homes/denver,-co_rb/",https://www.zillow.com/homedetails/6454-E-Bates-Ave-Denver-CO-80222/13416241_zpid/,"https://www.zillow.com/homes/denver,-co_rb/8_p/"
95,122076115,"2484 Aperture Cir, San Diego, CA 92108",32.781841,-117.149219,750000,USD,3,3,1306.0 sqft,,804700,3200,1,,FALSE,https://photos.zillowstatic.com/fp/2fca62494554d08d752466665db70c82-p_e.jpg,Townhouse for sale,,"https://www.zillow.com/homes/San-Diego,-CA_rb/",https://www.zillow.com/homedetails/2484-Aperture-Cir-San-Diego-CA-92108/122076115_zpid/,"https://www.zillow.com/homes/San-Diego,-CA_rb/3_p/"
64,67547661,"26 Bellas Way, Poughkeepsie, NY 12601",41.780865,-73.896552,380000,USD,3,3,2184.0 sqft,,411000,3266,0,,FALSE,https://photos.zillowstatic.com/fp/27ee3a735367a39a43c4958384fad680-p_e.jpg,House for sale,Listing by: C21 Alliance Realty Group Wf,https://www.zillow.com/homes/NY_rb/,https://www.zillow.com/homedetails/26-Bellas-Way-Poughkeepsie-NY-12601/67547661_zpid/,https://www.zillow.com/homes/NY_rb/2_p/
773,16986738,"4969 Elsa Rd, San Diego, CA 92120",32.785411,-117.086395,699000,USD,2,2,1311.0 sqft,,703500,2821,29,,FALSE,https://photos.zillowstatic.com/fp/434d517fac90499e1b2731a90fca9b5b-p_e.jpg,House for sale,,"https://www.zillow.com/homes/San-Diego,-CA_rb/",https://www.zillow.com/homedetails/4969-Elsa-Rd-San-Diego-CA-92120/16986738_zpid/,"https://www.zillow.com/homes/San-Diego,-CA_rb/20_p/"
152,2068433007,"1050 S Monaco Pkwy UNIT 82, Denver, CO 80224",39.697515,-104.911623,395000,USD,3,4,2280.0 sqft,,,,1,,FALSE,https://photos.zillowstatic.com/fp/5668b94b879afcb88f23a803606afa3d-p_e.jpg,Condo for sale,ROCKY MOUNTAIN REALTY,"https://www.zillow.com/homes/denver,-co_rb/",https://www.zillow.com/homedetails/1050-S-Monaco-Pkwy-UNIT-82-Denver-CO-80224/2068433007_zpid/,"https://www.zillow.com/homes/denver,-co_rb/4_p/"
622,13044992,"1304 S Parker Rd APT 160, Denver, CO 80231",39.695164,-104.893647,142000,USD,1,1,600.0 sqft,,142000,980,21,,FALSE,https://photos.zillowstatic.com/fp/72155d870d0025a2bce0ecf1cb7c23b4-p_e.jpg,Condo for sale,Keller Williams DTC,"https://www.zillow.com/homes/denver,-co_rb/",https://www.zillow.com/homedetails/1304-S-Parker-Rd-APT-160-Denver-CO-80231/13044992_zpid/,"https://www.zillow.com/homes/denver,-co_rb/16_p/"
187,61114004,"303 S Sampson St, Ellensburg, WA 98926",46.990109,-120.540603,295000,USD,1,2,900.0 sqft,,245200,1331,0,,FALSE,https://photos.zillowstatic.com/fp/cc2415ace1bc9e28e39aec0afbfb4e87-p_e.jpg,Active,,https://www.zillow.com/homes/WA_rb/,https://www.zillow.com/homedetails/303-S-Sampson-St-Ellensburg-WA-98926/61114004_zpid/,https://www.zillow.com/homes/WA_rb/5_p/
624,61724052,"2084 Wedgewood Dr, Asbury, IA 52002",42.508298,-90.793011,549000,USD,4,5,3524.0 sqft,,453000,2216,2,,FALSE,https://photos.zillowstatic.com/fp/0f92e124924f4f12de1b12bbb3337c73-p_e.jpg,House for sale,Mozena Realty Group,https://www.zillow.com/homes/IA_rb/,https://www.zillow.com/homedetails/2084-Wedgewood-Dr-Asbury-IA-52002/61724052_zpid/,https://www.zillow.com/homes/IA_rb/16_p/
86,13321053,"2020 N Ogden St, Denver, CO 80205",39.74803,-104.974221,895000,USD,3,3,2160.0 sqft,,837100,3440,1,,FALSE,https://photos.zillowstatic.com/fp/9ea84956140910f9c8f695caf2129f1f-p_e.jpg,House for sale,LIV Sotheby's International Realty,"https://www.zillow.com/homes/denver,-co_rb/",https://www.zillow.com/homedetails/2020-N-Ogden-St-Denver-CO-80205/13321053_zpid/,"https://www.zillow.com/homes/denver,-co_rb/3_p/"
175,52871041,"1908 W Park Ave, Orange, TX 77630",30.101684,-93.749762,262000,USD,4,5,2515.0 sqft,,189400,2125,0,,FALSE,https://photos.zillowstatic.com/fp/9fc94bc894ead95c547cadb4e101890d-p_e.jpg,House for sale,RE/MAX ONE _rrc2*-rrc_ 9000010,https://www.zillow.com/homes/TX_rb/,https://www.zillow.com/homedetails/1908-W-Park-Ave-Orange-TX-77630/52871041_zpid/,https://www.zillow.com/homes/TX_rb/5_p/
479,53580872,"2325 Vogel Ln, Brookshire, TX 77423",29.809318,-95.983255,529999,USD,3,4,3252.0 sqft,,446900,2566,0,,FALSE,https://photos.zillowstatic.com/fp/2131a35dee70e4bdad7d12a0caa4595e-p_e.jpg,House for sale,Keller Williams Realty Austin,https://www.zillow.com/homes/TX_rb/,https://www.zillow.com/homedetails/2325-Vogel-Ln-Brookshire-TX-77423/53580872_zpid/,https://www.zillow.com/homes/TX_rb/12_p/
281,80314886,"221 W Pearl St, Granbury, TX 76048",32.442002,-97.789669,425000,USD,2,3,2280.0 sqft,,401000,2679,0,,FALSE,https://photos.zillowstatic.com/fp/ff16c8054011fd6ba2a05772aa452349-p_e.jpg,House for sale,,https://www.zillow.com/homes/TX_rb/,https://www.zillow.com/homedetails/221-W-Pearl-St-Granbury-TX-76048/80314886_zpid/,https://www.zillow.com/homes/TX_rb/8_p/
433,16914138,"4872 Mount Alifan Dr, San Diego, CA 92111",32.815846,-117.188465,975000,USD,2,4,1895.0 sqft,,1005500,4169,9,,FALSE,https://photos.zillowstatic.com/fp/5fa12cb647235598e1a581ec3ba899c3-p_e.jpg,House for sale,,"https://www.zillow.com/homes/San-Diego,-CA_rb/",https://www.zillow.com/homedetails/4872-Mount-Alifan-Dr-San-Diego-CA-92111/16914138_zpid/,"https://www.zillow.com/homes/San-Diego,-CA_rb/11_p/"
172,89454200,"410 Fieldstone Ln, Venus, TX 76084",32.431728,-97.096869,250000,USD,2,3,1579.0 sqft,,,,0,,FALSE,https://photos.zillowstatic.com/fp/b1022faa1b4b25880a443730a4378ee2-p_e.jpg,House for sale,,https://www.zillow.com/homes/TX_rb/,https://www.zillow.com/homedetails/410-Fieldstone-Ln-Venus-TX-76084/89454200_zpid/,https://www.zillow.com/homes/TX_rb/5_p/
3,2067951176,"700 Habor St #506, San Diego, CA 92101",32.712102,-117.16969,959900,USD,2,2,1338.0 sqft,,,,-6,,FALSE,https://photos.zillowstatic.com/fp/0e862d6763b7391ff7c80b692f2e9514-p_e.jpg,Coming soon,Willis Allen Real Estate,"https://www.zillow.com/homes/San-Diego,-CA_rb/",https://www.zillow.com/homedetails/700-Habor-St-506-San-Diego-CA-92101/2067951176_zpid/,"https://www.zillow.com/homes/San-Diego,-CA_rb/"
739,81364202,"2103 N Oakes St UNIT D, Tacoma, WA 98406",47.267694,-122.47133,469900,USD,3,3,1728.0 sqft,,476500,2480,0,,FALSE,https://photos.zillowstatic.com/fp/51a3b311815cad5637d62c1a1ecece35-p_e.jpg,Active,,https://www.zillow.com/homes/WA_rb/,https://www.zillow.com/homedetails/2103-N-Oakes-St-UNIT-D-Tacoma-WA-98406/81364202_zpid/,https://www.zillow.com/homes/WA_rb/19_p/
575,17173173,"1646 Arequipa St, San Diego, CA 92154",32.566558,-117.099001,745000,USD,2,5,1602.0 sqft,,778700,3399,15,,FALSE,https://photos.zillowstatic.com/fp/4aab031de46abf7dbf8e9b327123cb2a-p_e.jpg,House for sale,,"https://www.zillow.com/homes/San-Diego,-CA_rb/",https://www.zillow.com/homedetails/1646-Arequipa-St-San-Diego-CA-92154/17173173_zpid/,"https://www.zillow.com/homes/San-Diego,-CA_rb/15_p/"
333,2067961248,"1675 Golf Course Blvd LOT 55, Independence, IA 50644",42.486036,-91.948318,157500,USD,1,2,1200.0 sqft,,,,1,,FALSE,https://photos.zillowstatic.com/fp/911cb3beef5f16ae0e03b86e518c4802-p_e.jpg,House for sale,Berkshire Hathaway Home Services One Realty Centre,https://www.zillow.com/homes/IA_rb/,https://www.zillow.com/homedetails/1675-Golf-Course-Blvd-LOT-55-Independence-IA-50644/2067961248_zpid/,https://www.zillow.com/homes/IA_rb/9_p/
731,80464688,"17 Kirkdale Cir, Rochester, NY 14612",43.26001,-77.679516,189900,USD,2,2,1338.0 sqft,,,,0,,FALSE,https://photos.zillowstatic.com/fp/2b1174e96351444ba371cd472ff490f9-p_e.jpg,Townhouse for sale,Listing by: Keller Williams Realty Greater Rochester West,https://www.zillow.com/homes/NY_rb/,https://www.zillow.com/homedetails/17-Kirkdale-Cir-Rochester-NY-14612/80464688_zpid/,https://www.zillow.com/homes/NY_rb/19_p/
9,108831143,"2608 E Cherry St, Seattle, WA 98122",47.60817,-122.298294,560000,USD,1,1,590.0 sqft,,,,0,,FALSE,https://photos.zillowstatic.com/fp/722df4874820aaac619025b54f33df55-p_e.jpg,Active,,https://www.zillow.com/homes/WA_rb/,https://www.zillow.com/homedetails/2608-E-Cherry-St-Seattle-WA-98122/108831143_zpid/,https://www.zillow.com/homes/WA_rb/
239,299228500,"5823 S Fm 565 Rd, Baytown, TX 77523",29.810187,-94.83335,750000,USD,2,3,2891.0 sqft,,198800,1731,0,,FALSE,https://photos.zillowstatic.com/fp/0c2515c72bd1ecf47ae2d75162a49467-p_e.jpg,House for sale,"Virginia Malone & Assoc.,",https://www.zillow.com/homes/TX_rb/,https://www.zillow.com/homedetails/5823-S-Fm-565-Rd-Baytown-TX-77523/299228500_zpid/,https://www.zillow.com/homes/TX_rb/6_p/
649,67448792,"1735 19th St UNIT 6B, Denver, CO 80202",39.755535,-104.996907,1495000,USD,2,3,2239.0 sqft,,1469500,5872,22,,FALSE,https://photos.zillowstatic.com/fp/c91cfad48fb5e7836e84b508927e14f9-p_e.jpg,Condo for sale,Love Your Hood,"https://www.zillow.com/homes/denver,-co_rb/",https://www.zillow.com/homedetails/1735-19th-St-UNIT-6B-Denver-CO-80202/67448792_zpid/,"https://www.zillow.com/homes/denver,-co_rb/17_p/"
721,31274795,"301 Merrifield Ave, Oceanside, NY 11572",40.63686,-73.650591,400000,USD,2,4,,,453100,1653,0,,FALSE,https://photos.zillowstatic.com/fp/86364d649a3ecd22e4e57a04d4c26dbc-p_e.jpg,House for sale,Listing by: Signature Premier Properties,https://www.zillow.com/homes/NY_rb/,https://www.zillow.com/homedetails/301-Merrifield-Ave-Oceanside-NY-11572/31274795_zpid/,https://www.zillow.com/homes/NY_rb/19_p/
302,231298006,"118 13th Ave E, Oskaloosa, IA 52577",41.283145,-92.644513,99900,USD,1,2,843.0 sqft,,85500,834,1,,FALSE,https://photos.zillowstatic.com/fp/119a55ce01d20e44298e4b5a48ad6805-p_e.jpg,House for sale,Legacy Real Estate Group,https://www.zillow.com/homes/IA_rb/,https://www.zillow.com/homedetails/118-13th-Ave-E-Oskaloosa-IA-52577/231298006_zpid/,https://www.zillow.com/homes/IA_rb/8_p/
162,16994666,"4657 Altadena Ave, San Diego, CA 92115",32.762034,-117.085418,919900,USD,2,3,1325.0 sqft,,917900,3567,2,,FALSE,https://photos.zillowstatic.com/fp/1be46ce43b7e6c0716058be2ebbbc4d8-p_e.jpg,House for sale,,"https://www.zillow.com/homes/San-Diego,-CA_rb/",https://www.zillow.com/homedetails/4657-Altadena-Ave-San-Diego-CA-92115/16994666_zpid/,"https://www.zillow.com/homes/San-Diego,-CA_rb/5_p/"
751,30295894,"266 N Willowlawn Pkwy, Cheektowaga, NY 14206",42.879428,-78.797216,149900,USD,2,3,888.0 sqft,,170600,1500,0,,FALSE,https://photos.zillowstatic.com/fp/9634a6964453f8cc412b9316fa30f3bc-p_e.jpg,House for sale,Listing by: WNY Metro Roberts Realty,https://www.zillow.com/homes/NY_rb/,https://www.zillow.com/homedetails/266-N-Willowlawn-Pkwy-Cheektowaga-NY-14206/30295894_zpid/,https://www.zillow.com/homes/NY_rb/19_p/
757,2067946258,"4-4A Red Hawk Rd #11, Huntsville, TX 77340",30.605729,-95.558933,129900,USD,,,,2.01 acres,,,0,,FALSE,"https://maps.googleapis.com/maps/api/staticmap?mobile=false&sensor=true&maptype=satellite&size=575x242&zoom=17&center=30.605729,-95.558933&key=AIzaSyBJsNQO5ZeG-XAbqqWLKwG08fWITSxg33w&signature=3_iVtDh5Vb046MrGyrLs1ZE7yz4=",Lot / Land for sale,Grand Ranch Realty,https://www.zillow.com/homes/TX_rb/,https://www.zillow.com/homedetails/4-4A-Red-Hawk-Rd-11-Huntsville-TX-77340/2067946258_zpid/,https://www.zillow.com/homes/TX_rb/19_p/
487,2067945315,"910 Ildflower St, Ennis, TX 75119",,,220000,USD,2,3,1302.0 sqft,,,,0,,FALSE,https://photos.zillowstatic.com/fp/6c1379d019a9f46d6f4f7afe04e45c82-p_e.jpg,House for sale,,https://www.zillow.com/homes/TX_rb/,https://www.zillow.com/homedetails/910-Ildflower-St-Ennis-TX-75119/2067945315_zpid/,https://www.zillow.com/homes/TX_rb/13_p/
266,861884,"729 20th St, West Des Moines, IA 50265",41.580259,-93.733143,249900,USD,2,4,1128.0 sqft,,,,0,,FALSE,https://photos.zillowstatic.com/fp/f1ed47c6727bba305851ecc70f385d33-p_e.jpg,House for sale,RE/MAX Precision,https://www.zillow.com/homes/IA_rb/,https://www.zillow.com/homedetails/729-20th-St-West-Des-Moines-IA-50265/861884_zpid/,https://www.zillow.com/homes/IA_rb/7_p/
666,123227292,"1105 Bonner St, Houston, TX 77007",29.771194,-95.402401,435000,USD,4,3,2320.0 sqft,,455600,3200,0,,FALSE,https://photos.zillowstatic.com/fp/cb1d042ce77a17ee7750d4bf337d7a4b-p_e.jpg,Townhouse for sale,Martha Turner Sotheby's,https://www.zillow.com/homes/TX_rb/,https://www.zillow.com/homedetails/1105-Bonner-St-Houston-TX-77007/123227292_zpid/,https://www.zillow.com/homes/TX_rb/17_p/
459,120764449,"911 Westmoreland Dr, Prosper, TX 75078",33.227103,-96.893778,325000,USD,2,3,1668.0 sqft,,333500,2056,0,,FALSE,https://photos.zillowstatic.com/fp/cae685e692b59cf0ffd763c1abce0813-p_e.jpg,House for sale,,https://www.zillow.com/homes/TX_rb/,https://www.zillow.com/homedetails/911-Westmoreland-Dr-Prosper-TX-75078/120764449_zpid/,https://www.zillow.com/homes/TX_rb/12_p/
790,307018957,"1191 Baptist Church Rd, Yorktown Heights, NY 10598",41.256972,-73.816917,199000,USD,,,,4.79 acres,,,0,,FALSE,https://photos.zillowstatic.com/fp/f453c8a3ef4dc8ed4b0a139478f5c9d8-p_e.jpg,Lot / Land for sale,Listing by: Houlihan Lawrence Inc.,https://www.zillow.com/homes/NY_rb/,https://www.zillow.com/homedetails/1191-Baptist-Church-Rd-Yorktown-Heights-NY-10598/307018957_zpid/,https://www.zillow.com/homes/NY_rb/20_p/
346,19754824,"5596 Dwight Ave, San Jose, CA 95118",37.237652,-121.899707,1450000,USD,2,3,1211.0 sqft,,1568311,3699,21,,FALSE,https://photos.zillowstatic.com/fp/e97dcaf5c3ae7473b774d14aff2549c1-p_e.jpg,House for sale,,"https://www.zillow.com/homes/san-jose,-CA_rb/",https://www.zillow.com/homedetails/5596-Dwight-Ave-San-Jose-CA-95118/19754824_zpid/,"https://www.zillow.com/homes/san-jose,-CA_rb/9_p/"
436,2077373849,"Edmon Plan, Southbridge Farms",41.60208,-94.01261,299990,USD,3,4,1844.0 sqft,,,,1,,FALSE,https://photos.zillowstatic.com/fp/61c6ed9f7ca391713acf6adb0e89a420-p_e.jpg,New construction,,https://www.zillow.com/homes/IA_rb/,https://www.zillow.com/community/southbridge-farms/2077373849_zpid/,https://www.zillow.com/homes/IA_rb/11_p/
127,62038765,"10255 Spruce Woodlands Way, Escondido, CA 92026",33.212842,-117.110686,837900,USD,3,4,2357.0 sqft,,842948,3696,35,,TRUE,https://photos.zillowstatic.com/fp/bfd9612cfe4a09869ea8f75c405fd201-p_e.jpg,House for sale,,"https://www.zillow.com/homes/Escondido,-CA_rb/",https://www.zillow.com/homedetails/10255-Spruce-Woodlands-Way-Escondido-CA-92026/62038765_zpid/,"https://www.zillow.com/homes/Escondido,-CA_rb/4_p/"
398,251841893,"2617 S Acoma St, Denver, CO 80223",39.669051,-104.989141,1100000,USD,5,4,5158.0 sqft,,1121500,4262,7,,FALSE,https://photos.zillowstatic.com/fp/6149e327135c5cc90f462448615f8ded-p_e.jpg,Multi-family home for sale,CJV Real Estate,"https://www.zillow.com/homes/denver,-co_rb/",https://www.zillow.com/homedetails/2617-S-Acoma-St-Denver-CO-80223/251841893_zpid/,"https://www.zillow.com/homes/denver,-co_rb/10_p/"
589,2090414157,"2836 County Road 304, Rainbow, TX 76077",32.29844,-97.720367,646380,USD,,,,45.36 acres,,,0,,FALSE,https://photos.zillowstatic.com/fp/f7768ea7aa1bf39fc198b9af18c38773-p_e.jpg,Lot / Land for sale,,https://www.zillow.com/homes/TX_rb/,https://www.zillow.com/homedetails/2836-County-Road-304-Rainbow-TX-76077/2090414157_zpid/,https://www.zillow.com/homes/TX_rb/15_p/
97,88034675,"1386 Wilson Ave, Blaine, WA 98230",48.978167,-122.733203,410000,USD,2,3,1150.0 sqft,,,,0,,FALSE,https://photos.zillowstatic.com/fp/643905c08796c0256aa5635d980d6132-p_e.jpg,Active,,https://www.zillow.com/homes/WA_rb/,https://www.zillow.com/homedetails/1386-Wilson-Ave-Blaine-WA-98230/88034675_zpid/,https://www.zillow.com/homes/WA_rb/3_p/
299,244460223,"1020 Grand Concourse APT 9V, Bronx, NY 10451",40.830151,-73.920136,434000,USD,1,2,900.0 sqft,,344300,2149,0,,FALSE,https://photos.zillowstatic.com/fp/01c7a49dd59a9f9be3a2c4e209cb77b2-p_e.jpg,Condo for sale,Listing by: Douglas Elliman,https://www.zillow.com/homes/NY_rb/,https://www.zillow.com/homedetails/1020-Grand-Concourse-APT-9V-Bronx-NY-10451/244460223_zpid/,https://www.zillow.com/homes/NY_rb/8_p/
231,16851244,"7784 Lookout Dr, La Jolla, CA 92037",32.849472,-117.259046,3575000,USD,6,5,3597.0 sqft,,3575000,11070,3,,FALSE,https://photos.zillowstatic.com/fp/7099976478286660d09629876b8c00bd-p_e.jpg,House for sale,,"https://www.zillow.com/homes/San-Diego,-CA_rb/",https://www.zillow.com/homedetails/7784-Lookout-Dr-La-Jolla-CA-92037/16851244_zpid/,"https://www.zillow.com/homes/San-Diego,-CA_rb/6_p/"
449,2067948733,"1281 State Route 505, Toledo, WA 98591",46.446203,-122.846238,97000,USD,,,,0.38 acres,,,0,,FALSE,https://photos.zillowstatic.com/fp/68d1eec358e1f37b94d12aa0a69fa46c-p_e.jpg,Active,,https://www.zillow.com/homes/WA_rb/,https://www.zillow.com/homedetails/1281-State-Route-505-Toledo-WA-98591/2067948733_zpid/,https://www.zillow.com/homes/WA_rb/12_p/
86,49042324,"26223 14th Pl S, Des Moines, WA 98198",47.366343,-122.315627,499950,USD,2,4,1710.0 sqft,,507300,2495,0,,FALSE,https://photos.zillowstatic.com/fp/eb629ecb5836e3c659c94876cb5b9156-p_e.jpg,Active,,https://www.zillow.com/homes/WA_rb/,https://www.zillow.com/homedetails/26223-14th-Pl-S-Des-Moines-WA-98198/49042324_zpid/,https://www.zillow.com/homes/WA_rb/3_p/
54,31442184,"1332 Ashland Ave, Niagara Falls, NY 14301",43.099268,-79.04554,64900,USD,,,2004.0 sqft,,,,0,,FALSE,https://photos.zillowstatic.com/fp/901732c79cd6190d2b4bc443e7f607e5-p_e.jpg,Multi-family home for sale,Listing by: Pioneer Star Real Estate,https://www.zillow.com/homes/NY_rb/,https://www.zillow.com/homedetails/1332-Ashland-Ave-Niagara-Falls-NY-14301/31442184_zpid/,https://www.zillow.com/homes/NY_rb/2_p/
95,295340634,"395 Carlsbad Village Dr, Carlsbad, CA 92008",33.158676,-117.349661,8925000,USD,,,,0.41 acres,,4592,51,,FALSE,https://photos.zillowstatic.com/fp/49ec7ab05763edc85eee1120634726f3-p_e.jpg,Lot / Land for sale,Compass,"https://www.zillow.com/homes/carlsbad,-CA_rb/",https://www.zillow.com/homedetails/395-Carlsbad-Village-Dr-Carlsbad-CA-92008/295340634_zpid/,"https://www.zillow.com/homes/carlsbad,-CA_rb/3_p/"
593,13415865,"3020 S Newport St, Denver, CO 80224",39.660898,-104.908354,830000,USD,3,4,3309.0 sqft,,830000,2625,17,,FALSE,https://photos.zillowstatic.com/fp/de3cefd332cd539ab243c8c68c8aa8be-p_e.jpg,House for sale,Keller Williams DTC,"https://www.zillow.com/homes/denver,-co_rb/",https://www.zillow.com/homedetails/3020-S-Newport-St-Denver-CO-80224/13415865_zpid/,"https://www.zillow.com/homes/denver,-co_rb/15_p/"
433,23315128,"4401 NE 179th St, Vancouver, WA 98686",45.750264,-122.626085,595000,USD,1,2,920.0 sqft,,441900,1498,0,,FALSE,https://photos.zillowstatic.com/fp/a9ee65b83ea24039625a8996cfde18ce-p_e.jpg,Active,Real Living The Real Estate Group,https://www.zillow.com/homes/WA_rb/,https://www.zillow.com/homedetails/4401-NE-179th-St-Vancouver-WA-98686/23315128_zpid/,https://www.zillow.com/homes/WA_rb/11_p/
546,19758391,"1452 Branham Ln, San Jose, CA 95118",37.258223,-121.892011,1200000,USD,2,4,1408.0 sqft,,1248007,3949,113,,FALSE,https://photos.zillowstatic.com/fp/6880dacc4fc4c8c94b13e646c0350d7d-p_e.jpg,House for sale,,"https://www.zillow.com/homes/san-jose,-CA_rb/",https://www.zillow.com/homedetails/1452-Branham-Ln-San-Jose-CA-95118/19758391_zpid/,"https://www.zillow.com/homes/san-jose,-CA_rb/14_p/"
199,13431106,"9805 W Wagon Trail Dr, Denver, CO 80123",39.631043,-105.106997,499900,USD,2,3,1706.0 sqft,,516100,2496,1,,FALSE,https://photos.zillowstatic.com/fp/399a5a023e6850957a7eb73a7996c8a6-p_e.jpg,House for sale,YOUR CASTLE MOUNTAIN PROPERTIES,"https://www.zillow.com/homes/denver,-co_rb/",https://www.zillow.com/homedetails/9805-W-Wagon-Trail-Dr-Denver-CO-80123/13431106_zpid/,"https://www.zillow.com/homes/denver,-co_rb/5_p/"
725,48884717,"28201 176th Pl SE, Kent, WA 98042",47.349168,-122.106685,650000,USD,2,3,1780.0 sqft,,658100,2558,0,,FALSE,https://photos.zillowstatic.com/fp/034152041d2f89bb75dac094febaf55a-p_e.jpg,Active,,https://www.zillow.com/homes/WA_rb/,https://www.zillow.com/homedetails/28201-176th-Pl-SE-Kent-WA-98042/48884717_zpid/,https://www.zillow.com/homes/WA_rb/19_p/
719,84057638,"14019 Windy Stream Ln, Houston, TX 77044",29.925104,-95.176737,425000,USD,4,4,3120.0 sqft,,391400,2469,0,,FALSE,https://photos.zillowstatic.com/fp/1756c8a9b4c5920778cf0f2900e8ec27-p_e.jpg,House for sale,Jane Byrd Properties INTL.,https://www.zillow.com/homes/TX_rb/,https://www.zillow.com/homedetails/14019-Windy-Stream-Ln-Houston-TX-77044/84057638_zpid/,https://www.zillow.com/homes/TX_rb/18_p/
679,113974547,"101 W 12th St APT 8O, New York, NY 10011",40.736477,-73.997972,799000,USD,1,0,,,775700,4441,0,,FALSE,https://photos.zillowstatic.com/fp/3e966e30feda2ad8a52b82633ef1ce3b-p_e.jpg,Condo for sale,Listing by: Compass,https://www.zillow.com/homes/NY_rb/,https://www.zillow.com/homedetails/101-W-12th-St-APT-8O-New-York-NY-10011/113974547_zpid/,https://www.zillow.com/homes/NY_rb/17_p/
49,49942152,"2953 W Canyon Ave, San Diego, CA 92123",32.799514,-117.117014,879900,USD,3,3,1512.0 sqft,,948200,3696,0,,FALSE,https://photos.zillowstatic.com/fp/1668de7cb2ccccc788161c6fddc21825-p_e.jpg,House for sale,,"https://www.zillow.com/homes/San-Diego,-CA_rb/",https://www.zillow.com/homedetails/2953-W-Canyon-Ave-San-Diego-CA-92123/49942152_zpid/,"https://www.zillow.com/homes/San-Diego,-CA_rb/2_p/"
174,113027347,"851 Thornberry Dr, Somerville, TX 77879",30.344708,-96.540027,210000,USD,2,3,1792.0 sqft,,202200,1340,0,,FALSE,https://photos.zillowstatic.com/fp/183ee573a7c423e2e41671582f76937d-p_e.jpg,Home for sale,Barnett Real Estate,https://www.zillow.com/homes/TX_rb/,https://www.zillow.com/homedetails/851-Thornberry-Dr-Somerville-TX-77879/113027347_zpid/,https://www.zillow.com/homes/TX_rb/5_p/
358,19766052,"6645 Bunker Hill Ct, San Jose, CA 95120",37.217565,-121.859461,1174950,USD,3,3,1451.0 sqft,,1257148,3407,24,,FALSE,https://photos.zillowstatic.com/fp/1f7d3b4252fde575216bf0141e5e0750-p_e.jpg,Condo for sale,,"https://www.zillow.com/homes/san-jose,-CA_rb/",https://www.zillow.com/homedetails/6645-Bunker-Hill-Ct-San-Jose-CA-95120/19766052_zpid/,"https://www.zillow.com/homes/san-jose,-CA_rb/9_p/"
568,31603075,"2983 Oneida St, Sauquoit, NY 13456",43.006649,-75.262034,212000,USD,2,3,2122.0 sqft,,,,0,,FALSE,https://photos.zillowstatic.com/fp/31474d7c3708b96fbb2b0648cc13d93c-p_e.jpg,House for sale,Listing by: COLDWELL BANKER FAITH PROPERTIES,https://www.zillow.com/homes/NY_rb/,https://www.zillow.com/homedetails/2983-Oneida-St-Sauquoit-NY-13456/31603075_zpid/,https://www.zillow.com/homes/NY_rb/15_p/
66,82928226,"8975 Lawrence Welk Dr SPACE 69, Escondido, CA 92026",33.227024,-117.141866,549000,USD,2,3,1656.0 sqft,,560000,3058,8,,FALSE,https://photos.zillowstatic.com/fp/9173b5f267ddf471f003a7abb4b1250e-p_e.jpg,Home for sale,Champagne Real Estate,"https://www.zillow.com/homes/Escondido,-CA_rb/",https://www.zillow.com/homedetails/8975-Lawrence-Welk-Dr-SPACE-69-Escondido-CA-92026/82928226_zpid/,"https://www.zillow.com/homes/Escondido,-CA_rb/2_p/"
769,30925194,"522 Valley Creek Rd, Rochester, NY 14624",43.132049,-77.712202,199900,USD,3,2,1661.0 sqft,,160100,1800,0,,FALSE,https://photos.zillowstatic.com/fp/058844c85b7783c2669de9c7eedaf0f6-p_e.jpg,Townhouse for sale,Listing by: Howard Hanna,https://www.zillow.com/homes/NY_rb/,https://www.zillow.com/homedetails/522-Valley-Creek-Rd-Rochester-NY-14624/30925194_zpid/,https://www.zillow.com/homes/NY_rb/20_p/
490,2068377483,"3027 Keats St #X, San Diego, CA 92106",32.728166,-117.227081,1499900,USD,,,,"5,001 sqft",,,11,,FALSE,https://photos.zillowstatic.com/fp/7bd5f18fc7a52f333ec3a0c5685944d0-p_e.jpg,Lot / Land for sale,,"https://www.zillow.com/homes/San-Diego,-CA_rb/",https://www.zillow.com/homedetails/3027-Keats-St-X-San-Diego-CA-92106/2068377483_zpid/,"https://www.zillow.com/homes/San-Diego,-CA_rb/13_p/"
45,19758568,"1408 Bouret Dr, San Jose, CA 95118",37.254201,-121.889993,1098000,USD,2,3,1080.0 sqft,,1215100,3262,1,,FALSE,https://photos.zillowstatic.com/fp/1dc7dd757c8e2bf1b589d722625b1ee0-p_e.jpg,House for sale,,"https://www.zillow.com/homes/san-jose,-CA_rb/",https://www.zillow.com/homedetails/1408-Bouret-Dr-San-Jose-CA-95118/19758568_zpid/,"https://www.zillow.com/homes/san-jose,-CA_rb/2_p/"
375,2068524521,"1076 Rymar Ter, San Jose, CA 95133",37.384103,-121.860151,779000,USD,3,2,1042.0 sqft,,816769,2812,26,,FALSE,https://photos.zillowstatic.com/fp/506d4b40d24de3b82e2df9d3e12a094e-p_e.jpg,Townhouse for sale,,"https://www.zillow.com/homes/san-jose,-CA_rb/",https://www.zillow.com/homedetails/1076-Rymar-Ter-San-Jose-CA-95133/2068524521_zpid/,"https://www.zillow.com/homes/san-jose,-CA_rb/10_p/"
186,16793895,"10470 Caminito Rimini, San Diego, CA 92129",32.964903,-117.100481,399500,USD,1,2,882.0 sqft,,441800,2298,2,,FALSE,https://photos.zillowstatic.com/fp/5f7ccb881c31e1c3164bd3f42b5165cc-p_e.jpg,Condo for sale,,"https://www.zillow.com/homes/San-Diego,-CA_rb/",https://www.zillow.com/homedetails/10470-Caminito-Rimini-San-Diego-CA-92129/16793895_zpid/,"https://www.zillow.com/homes/San-Diego,-CA_rb/5_p/"
594,2067971945,"0 Riverside Rd, Washington, IA 52353",41.364963,-91.640694,1,USD,,0,,242.3 acres,,,2,,FALSE,https://photos.zillowstatic.com/fp/9ceb7dcb3ea126b663bc0a0f0b8da55d-p_e.jpg,Auction,Peoples Company,https://www.zillow.com/homes/IA_rb/,https://www.zillow.com/homedetails/0-Riverside-Rd-Washington-IA-52353/2067971945_zpid/,https://www.zillow.com/homes/IA_rb/15_p/
566,67018943,"2843 Louisiana St, Longview, WA 98632",46.143285,-122.959439,339900,USD,1,2,1328.0 sqft,,,,0,,FALSE,https://photos.zillowstatic.com/fp/c8b4b970073ffa6c0a5f2d39b83f3aab-p_e.jpg,Active,"Realty Pro, Inc.",https://www.zillow.com/homes/WA_rb/,https://www.zillow.com/homedetails/2843-Louisiana-St-Longview-WA-98632/67018943_zpid/,https://www.zillow.com/homes/WA_rb/15_p/
586,60208530,"1440 Greenbrook Dr, Rockwall, TX 75032",32.900497,-96.440034,342000,USD,3,4,2720.0 sqft,,,,0,,FALSE,https://photos.zillowstatic.com/fp/2d1148f030ecdde2940738097e1576bc-p_e.jpg,House for sale,,https://www.zillow.com/homes/TX_rb/,https://www.zillow.com/homedetails/1440-Greenbrook-Dr-Rockwall-TX-75032/60208530_zpid/,https://www.zillow.com/homes/TX_rb/15_p/
657,32638389,"22 Ronek Dr, Amityville, NY 11701",40.692706,-73.406948,245000,USD,1,3,1243.0 sqft,,,,0,,FALSE,https://photos.zillowstatic.com/fp/98f01e7504570d8d2a12ac78e32e0ac2-p_e.jpg,Foreclosure,Listing by: REALHome Services & Solutions,https://www.zillow.com/homes/NY_rb/,https://www.zillow.com/homedetails/22-Ronek-Dr-Amityville-NY-11701/32638389_zpid/,https://www.zillow.com/homes/NY_rb/17_p/
13,16683742,"1257 Dos Hermanos Gln, Escondido, CA 92027",33.153152,-117.057057,749500,USD,3,4,1724.0 sqft,,,,1,,FALSE,https://photos.zillowstatic.com/fp/3995868f7af8bb9a2cff7e4afa470884-p_e.jpg,House for sale,,"https://www.zillow.com/homes/Escondido,-CA_rb/",https://www.zillow.com/homedetails/1257-Dos-Hermanos-Gln-Escondido-CA-92027/16683742_zpid/,"https://www.zillow.com/homes/Escondido,-CA_rb/"
296,300476154,"51 S 19th St, San Jose, CA 95116",37.343255,-121.871983,10050000,USD,,,29776.0 sqft,,,1775,15,,FALSE,https://photos.zillowstatic.com/fp/a702f124b0f719b3e6939658bc80d887-p_e.jpg,Multi-family home for sale,,"https://www.zillow.com/homes/san-jose,-CA_rb/",https://www.zillow.com/homedetails/51-S-19th-St-San-Jose-CA-95116/300476154_zpid/,"https://www.zillow.com/homes/san-jose,-CA_rb/8_p/"
268,16972927,"3776 Alabama St UNIT 307, San Diego, CA 92104",32.747356,-117.142714,219000,USD,1,1,378.0 sqft,,231600,1397,4,,FALSE,https://photos.zillowstatic.com/fp/d6b26a380502975587d2d1a3eaf6a59d-p_e.jpg,House for sale,,"https://www.zillow.com/homes/San-Diego,-CA_rb/",https://www.zillow.com/homedetails/3776-Alabama-St-UNIT-307-San-Diego-CA-92104/16972927_zpid/,"https://www.zillow.com/homes/San-Diego,-CA_rb/7_p/"
700,31285165,"18 Bamboo Ln, Hicksville, NY 11801",40.755058,-73.541043,568888,USD,2,4,1200.0 sqft,,544200,3480,0,,FALSE,https://photos.zillowstatic.com/fp/e890d2f4473b4f34ce5dc78810b3cde0-p_e.jpg,Coming soon,Listing by: Property Professionals Realty,https://www.zillow.com/homes/NY_rb/,https://www.zillow.com/homedetails/18-Bamboo-Ln-Hicksville-NY-11801/31285165_zpid/,https://www.zillow.com/homes/NY_rb/18_p/
552,52523870,"6282 Lake Leven Dr, San Diego, CA 92119",32.79378,-117.03395,1275000,USD,2,4,2124.0 sqft,,1324700,3863,14,,FALSE,https://photos.zillowstatic.com/fp/1eee0d43dbe2c3402e3b46e0ae7e74a3-p_e.jpg,House for sale,,"https://www.zillow.com/homes/San-Diego,-CA_rb/",https://www.zillow.com/homedetails/6282-Lake-Leven-Dr-San-Diego-CA-92119/52523870_zpid/,"https://www.zillow.com/homes/San-Diego,-CA_rb/14_p/"
510,2069304060,"3490 Sweigert Rd, San Jose, CA 95132",37.411255,-121.846325,6800000,USD,,,,29.79 acres,,2281,73,,FALSE,https://photos.zillowstatic.com/fp/bfb357f2aab2f4120851601526842678-p_e.jpg,Lot / Land for sale,,"https://www.zillow.com/homes/san-jose,-CA_rb/",https://www.zillow.com/homedetails/3490-Sweigert-Rd-San-Jose-CA-95132/2069304060_zpid/,"https://www.zillow.com/homes/san-jose,-CA_rb/13_p/"
116,82927259,"7241 San Luis St #185, Carlsbad, CA 92011",33.100053,-117.313562,267400,USD,2,3,1546.0 sqft,,263400,3999,93,,FALSE,https://photos.zillowstatic.com/fp/32151856cc7b61c29af3191d6c82e9e4-p_e.jpg,Home for sale,,"https://www.zillow.com/homes/carlsbad,-CA_rb/",https://www.zillow.com/homedetails/7241-San-Luis-St-185-Carlsbad-CA-92011/82927259_zpid/,"https://www.zillow.com/homes/carlsbad,-CA_rb/3_p/"
265,2086251180,"4157 High St, West Des Moines, IA 50265",41.538421,-93.759165,320000,USD,3,4,1412.0 sqft,,375700,1929,0,,FALSE,https://photos.zillowstatic.com/fp/31c38a4708f5312ffec8e3eb1e887dfc-p_e.jpg,House for sale,Redfin Corporation,https://www.zillow.com/homes/IA_rb/,https://www.zillow.com/homedetails/4157-High-St-West-Des-Moines-IA-50265/2086251180_zpid/,https://www.zillow.com/homes/IA_rb/7_p/
113,19694187,"1769 Ledgewood Dr, San Jose, CA 95124",37.264135,-121.914853,1000000,USD,2,3,1210.0 sqft,,1155300,3714,2,,FALSE,https://photos.zillowstatic.com/fp/366ad39b9615df51d9af2d390d549010-p_e.jpg,House for sale,,"https://www.zillow.com/homes/san-jose,-CA_rb/",https://www.zillow.com/homedetails/1769-Ledgewood-Dr-San-Jose-CA-95124/19694187_zpid/,"https://www.zillow.com/homes/san-jose,-CA_rb/3_p/"
578,295349327,"1411-1413 Oliver Ave, San Diego, CA 92109",32.794036,-117.242611,2799000,USD,5,6,3060.0 sqft,,,7002,16,,FALSE,https://photos.zillowstatic.com/fp/8f5abe47b4a719bf02047ce3d4dbe86a-p_e.jpg,Multi-family home for sale,,"https://www.zillow.com/homes/San-Diego,-CA_rb/",https://www.zillow.com/homedetails/1411-1413-Oliver-Ave-San-Diego-CA-92109/295349327_zpid/,"https://www.zillow.com/homes/San-Diego,-CA_rb/15_p/"
217,217511177,"119 Cross Timbers St, Lufkin, TX 75904",31.388377,-94.768277,229900,USD,2,3,1907.0 sqft,,,,0,,FALSE,https://photos.zillowstatic.com/fp/58f9d9d1ff67e0a3053284eee5d858c9-p_e.jpg,House for sale,Brookshire Real Estate,https://www.zillow.com/homes/TX_rb/,https://www.zillow.com/homedetails/119-Cross-Timbers-St-Lufkin-TX-75904/217511177_zpid/,https://www.zillow.com/homes/TX_rb/6_p/
412,2067944886,"1649 Canal Dr, Bay City, TX 77414",28.777957,-95.601402,100000,USD,,,,"7,492 sqft",,,0,,FALSE,https://photos.zillowstatic.com/fp/8697e7d0011e528f8155e1f1c145671c-p_e.jpg,Lot / Land for sale,Keller Williams Woodlands,https://www.zillow.com/homes/TX_rb/,https://www.zillow.com/homedetails/1649-Canal-Dr-Bay-City-TX-77414/2067944886_zpid/,https://www.zillow.com/homes/TX_rb/11_p/
14,2067942507,"115 215th St SE #6, Bothell, WA 98021",47.802712,-122.228992,1277740,USD,3,4,2829.0 sqft,,,,0,,FALSE,https://photos.zillowstatic.com/fp/3bd794d165dee01b15144e9f9cdc9173-p_e.jpg,Active,,https://www.zillow.com/homes/WA_rb/,https://www.zillow.com/homedetails/115-215th-St-SE-6-Bothell-WA-98021/2067942507_zpid/,https://www.zillow.com/homes/WA_rb/
99,19641047,"6956 Calabazas Creek Cir, San Jose, CA 95129",37.297718,-122.027948,2895000,USD,3,4,2903.0 sqft,,3341200,6528,2,,FALSE,https://photos.zillowstatic.com/fp/e422d555dca929ead0a6fba0e454b042-p_e.jpg,House for sale,,"https://www.zillow.com/homes/san-jose,-CA_rb/",https://www.zillow.com/homedetails/6956-Calabazas-Creek-Cir-San-Jose-CA-95129/19641047_zpid/,"https://www.zillow.com/homes/san-jose,-CA_rb/3_p/"
154,2067994566,"791 Villa Teresa Way UNIT 791, San Jose, CA 95123",37.242221,-121.858262,249000,USD,2,2,1440.0 sqft,,,,4,,FALSE,https://photos.zillowstatic.com/fp/a7c7ec3782698d0b5b94712b4a95de61-p_e.jpg,Home for sale,,"https://www.zillow.com/homes/san-jose,-CA_rb/",https://www.zillow.com/homedetails/791-Villa-Teresa-Way-UNIT-791-San-Jose-CA-95123/2067994566_zpid/,"https://www.zillow.com/homes/san-jose,-CA_rb/4_p/"
98,13411083,"2525 S Dayton Way APT 1003, Denver, CO 80231",39.670687,-104.87565,250000,USD,1,2,1063.0 sqft,,274800,1834,1,,FALSE,https://photos.zillowstatic.com/fp/c158ccd4ffafb2cfa4404b852caf61cc-p_e.jpg,Condo for sale,HomeSmart,"https://www.zillow.com/homes/denver,-co_rb/",https://www.zillow.com/homedetails/2525-S-Dayton-Way-APT-1003-Denver-CO-80231/13411083_zpid/,"https://www.zillow.com/homes/denver,-co_rb/3_p/"
39,16652148,"804 Caminito Azul, Carlsbad, CA 92011",33.110968,-117.314381,824900,USD,2,3,1435.0 sqft,,737000,3522,6,,FALSE,https://photos.zillowstatic.com/fp/aa67dec4f8b0fb676f00bb2998ae1445-p_e.jpg,Multi-family home for sale,,"https://www.zillow.com/homes/carlsbad,-CA_rb/",https://www.zillow.com/homedetails/804-Caminito-Azul-Carlsbad-CA-92011/16652148_zpid/,"https://www.zillow.com/homes/carlsbad,-CA_rb/"
604,16870843,"10853 Lamentin Ct, San Diego, CA 92124",32.826166,-117.095248,619000,USD,2,3,1476.0 sqft,,623300,3310,17,,FALSE,https://photos.zillowstatic.com/fp/895aa6e421983bd5e7b289d071fbc9de-p_e.jpg,Condo for sale,Coldwell Banker West,"https://www.zillow.com/homes/San-Diego,-CA_rb/",https://www.zillow.com/homedetails/10853-Lamentin-Ct-San-Diego-CA-92124/16870843_zpid/,"https://www.zillow.com/homes/San-Diego,-CA_rb/16_p/"
134,117853793,"102 3rd Ave, Royal, IA 51357",43.066238,-95.284448,30000,USD,1,2,960.0 sqft,,,831,0,,FALSE,https://photos.zillowstatic.com/fp/2b31ef7ce85030b23d778a31a4e00041-p_e.jpg,House for sale,EXIT Realty Midwest- Spencer,https://www.zillow.com/homes/IA_rb/,https://www.zillow.com/homedetails/102-3rd-Ave-Royal-IA-51357/117853793_zpid/,https://www.zillow.com/homes/IA_rb/4_p/
335,331727599,"4524 Danielle Gardens Ln, Conroe, TX 77304",30.349281,-95.50201,256928,USD,2,3,1704.0 sqft,,,2100,0,,FALSE,https://photos.zillowstatic.com/fp/c7acfe9fdd4f316a82a955a8f02c0a25-p_e.jpg,New construction,Legend Home Corporation,https://www.zillow.com/homes/TX_rb/,https://www.zillow.com/homedetails/4524-Danielle-Gardens-Ln-Conroe-TX-77304/331727599_zpid/,https://www.zillow.com/homes/TX_rb/9_p/
68,19490063,"12 Torregata Loop, San Jose, CA 95134",37.415495,-121.956688,875000,USD,3,2,1130.0 sqft,,927098,3084,1,,FALSE,https://photos.zillowstatic.com/fp/971d4aedc353a578dbc91984077918b6-p_e.jpg,Townhouse for sale,,"https://www.zillow.com/homes/san-jose,-CA_rb/",https://www.zillow.com/homedetails/12-Torregata-Loop-San-Jose-CA-95134/19490063_zpid/,"https://www.zillow.com/homes/san-jose,-CA_rb/2_p/"
630,2067974038,"10225 Powell Ave, Johnston, IA 50131",,,380310,USD,3,4,1277.0 sqft,,,,2,,FALSE,https://photos.zillowstatic.com/fp/130ed4615e37e9252d68799f12992d3c-p_e.jpg,New construction,"EXP Realty, LLC",https://www.zillow.com/homes/IA_rb/,https://www.zillow.com/homedetails/10225-Powell-Ave-Johnston-IA-50131/2067974038_zpid/,https://www.zillow.com/homes/IA_rb/16_p/
307,63790360,"7683 Mission Gorge Rd UNIT 164, San Diego, CA 92120",32.808098,-117.069865,506900,USD,2,2,1035.0 sqft,,512500,2300,6,,TRUE,https://photos.zillowstatic.com/fp/bb4d1541e59c7bca388ff43932daa0e0-p_e.jpg,Condo for sale,,"https://www.zillow.com/homes/San-Diego,-CA_rb/",https://www.zillow.com/homedetails/7683-Mission-Gorge-Rd-UNIT-164-San-Diego-CA-92120/63790360_zpid/,"https://www.zillow.com/homes/San-Diego,-CA_rb/8_p/"
321,2069733859,"Vail Plan, Kipling Park West: Paired Homes",39.632313,-105.109341,555990,USD,3,3,1832.0 sqft,,,1743,4,,FALSE,https://photos.zillowstatic.com/fp/20e263f3855e49d43397a67ce956585c-p_e.jpg,New construction,,"https://www.zillow.com/homes/denver,-co_rb/",https://www.zillow.com/community/kipling-park-west-paired-homes/2069733859_zpid/,"https://www.zillow.com/homes/denver,-co_rb/9_p/"
481,333726811,"184 Aspen Dr, Norwalk, IA 50211",41.469149,-93.687691,45000,USD,,0,,"4,356 sqft",,,1,,FALSE,https://photos.zillowstatic.com/fp/0b6ba5af1e0b05f44b20b819bac36eaa-p_e.jpg,Lot / Land for sale,RE/MAX Precision,https://www.zillow.com/homes/IA_rb/,https://www.zillow.com/homedetails/184-Aspen-Dr-Norwalk-IA-50211/333726811_zpid/,https://www.zillow.com/homes/IA_rb/13_p/
175,2067944610,"1718 5th Ave NE, Olympia, WA 98502",47.043743,-122.923459,409000,USD,1,2,1048.0 sqft,,,,0,,FALSE,https://photos.zillowstatic.com/fp/53d905f0166ac72c2164e064491182c3-p_e.jpg,Active,,https://www.zillow.com/homes/WA_rb/,https://www.zillow.com/homedetails/1718-5th-Ave-NE-Olympia-WA-98502/2067944610_zpid/,https://www.zillow.com/homes/WA_rb/5_p/
15,16715909,"434 Jolina Way, Encinitas, CA 92024",33.053629,-117.259486,1399000,USD,2,4,1852.0 sqft,,1218900,4940,4,,FALSE,"https://maps.googleapis.com/maps/api/staticmap?mobile=false&sensor=true&maptype=satellite&size=575x242&zoom=17&center=33.053629,-117.259486&key=AIzaSyBJsNQO5ZeG-XAbqqWLKwG08fWITSxg33w&signature=zuSTOzgOdJQNw_bTMSTpq4Ww8sw=",Coming soon,,"https://www.zillow.com/homes/Encinitas,-CA_rb/",https://www.zillow.com/homedetails/434-Jolina-Way-Encinitas-CA-92024/16715909_zpid/,"https://www.zillow.com/homes/Encinitas,-CA_rb/"
572,48947535,"14634 SE 140th St, Renton, WA 98059",47.477865,-122.144782,635000,USD,2,3,1490.0 sqft,,620400,2697,0,,FALSE,https://photos.zillowstatic.com/fp/4fb52ee1d448297e6c4de734c3f46235-p_e.jpg,Active,,https://www.zillow.com/homes/WA_rb/,https://www.zillow.com/homedetails/14634-SE-140th-St-Renton-WA-98059/48947535_zpid/,https://www.zillow.com/homes/WA_rb/15_p/
701,2069150424,"Ruby Plan, Heritage at Grimes",41.704548,-93.784362,446086,USD,4,4,1622.0 sqft,,,,3,,FALSE,https://photos.zillowstatic.com/fp/cea36bd3b0fd6de739fc198ec7e3c21d-p_e.jpg,New construction,,https://www.zillow.com/homes/IA_rb/,https://www.zillow.com/community/heritage-at-grimes/2069150424_zpid/,https://www.zillow.com/homes/IA_rb/18_p/
24,16655455,"7359 Alicante Rd, Carlsbad, CA 92009",33.093707,-117.25896,1399000,USD,4,4,4283.0 sqft,,1376100,9146,2,,FALSE,https://photos.zillowstatic.com/fp/160aa2cd5db54d2e9a7103a0701b5c4c-p_e.jpg,House for sale,Compass,"https://www.zillow.com/homes/carlsbad,-CA_rb/",https://www.zillow.com/homedetails/7359-Alicante-Rd-Carlsbad-CA-92009/16655455_zpid/,"https://www.zillow.com/homes/carlsbad,-CA_rb/"
759,111528147,"25 Whooping Hollow Rd, East Hampton, NY 11937",40.982172,-72.236825,3495000,USD,7,5,3777.0 sqft,,,34999,0,,FALSE,https://photos.zillowstatic.com/fp/692f3ed297cbae861e841555cbb5dbf1-p_e.jpg,New construction,Listing by: Nest Seekers International,https://www.zillow.com/homes/NY_rb/,https://www.zillow.com/homedetails/25-Whooping-Hollow-Rd-East-Hampton-NY-11937/111528147_zpid/,https://www.zillow.com/homes/NY_rb/19_p/
442,2067944937,"0 Highway 94, Groveton, TX 75845",31.076026,-95.120428,65000,USD,,,,2 acres,,,0,,FALSE,https://photos.zillowstatic.com/fp/9bc8fde4a9e7d1b23dbb95d0acd7bae6-p_e.jpg,Foreclosure,San Antonio's Finest Realty,https://www.zillow.com/homes/TX_rb/,https://www.zillow.com/homedetails/0-Highway-94-Groveton-TX-75845/2067944937_zpid/,https://www.zillow.com/homes/TX_rb/12_p/
52,23614253,"2606 Lummi View Dr, Bellingham, WA 98226",48.734708,-122.672041,295000,USD,1,1,768.0 sqft,,283200,1564,0,,FALSE,https://photos.zillowstatic.com/fp/d0f8999d17d6d05ce36c16c6d7aa3cc3-p_e.jpg,Active,,https://www.zillow.com/homes/WA_rb/,https://www.zillow.com/homedetails/2606-Lummi-View-Dr-Bellingham-WA-98226/23614253_zpid/,https://www.zillow.com/homes/WA_rb/2_p/
766,16977158,"3007 Central Ave, San Diego, CA 92105",32.736815,-117.107943,625000,USD,1,3,1080.0 sqft,,622300,2999,29,,FALSE,https://photos.zillowstatic.com/fp/fcba6c26f57cc71da6bc7696bb651094-p_e.jpg,House for sale,Coldwell Banker Realty,"https://www.zillow.com/homes/San-Diego,-CA_rb/",https://www.zillow.com/homedetails/3007-Central-Ave-San-Diego-CA-92105/16977158_zpid/,"https://www.zillow.com/homes/San-Diego,-CA_rb/20_p/"
451,2067948918,"172 W Lake Rd, Branchport, NY 14418",42.595592,-77.153326,499500,USD,4,4,5200.0 sqft,,,,0,,FALSE,https://photos.zillowstatic.com/fp/884c47ee270ba4090eb45b5df5d506ba-p_e.jpg,House for sale,Listing by: Howard Hanna Lake Group,https://www.zillow.com/homes/NY_rb/,https://www.zillow.com/homedetails/172-W-Lake-Rd-Branchport-NY-14418/2067948918_zpid/,https://www.zillow.com/homes/NY_rb/12_p/
121,63790538,"1150 J St UNIT 222, San Diego, CA 92101",32.709724,-117.154188,374900,USD,1,0,744.0 sqft,,356700,2100,1,,FALSE,https://photos.zillowstatic.com/fp/9c8e8636b81c92a367f501b33677759a-p_e.jpg,Condo for sale,,"https://www.zillow.com/homes/San-Diego,-CA_rb/",https://www.zillow.com/homedetails/1150-J-St-UNIT-222-San-Diego-CA-92101/63790538_zpid/,"https://www.zillow.com/homes/San-Diego,-CA_rb/4_p/"
788,13345384,"233 S Lincoln St, Denver, CO 80209",39.712307,-104.986683,798000,USD,3,3,2092.0 sqft,,829500,3369,36,,FALSE,https://photos.zillowstatic.com/fp/c0ed542f6868f6729f7df65d51993c13-p_e.jpg,House for sale,"MHLRE, LLC","https://www.zillow.com/homes/denver,-co_rb/",https://www.zillow.com/homedetails/233-S-Lincoln-St-Denver-CO-80209/13345384_zpid/,"https://www.zillow.com/homes/denver,-co_rb/20_p/"
42,19684483,"1074 Villa Maria Ct, San Jose, CA 95125",37.313116,-121.889556,780000,USD,3,2,1353.0 sqft,,824113,3195,1,,FALSE,https://photos.zillowstatic.com/fp/78b905a5998d1f13b379c1dcfe61e60d-p_e.jpg,Condo for sale,,"https://www.zillow.com/homes/san-jose,-CA_rb/",https://www.zillow.com/homedetails/1074-Villa-Maria-Ct-San-Jose-CA-95125/19684483_zpid/,"https://www.zillow.com/homes/san-jose,-CA_rb/2_p/"
351,2069549228,"4720 W 12th St, Davenport, IA 52804",41.532179,-90.643325,300000,USD,2,3,1387.0 sqft,,,,1,,FALSE,https://photos.zillowstatic.com/fp/5759ef4abc0e1af7a1c79e76211f7aef-p_e.jpg,New construction,New Home Sonar LLC,https://www.zillow.com/homes/IA_rb/,https://www.zillow.com/homedetails/4720-W-12th-St-Davenport-IA-52804/2069549228_zpid/,https://www.zillow.com/homes/IA_rb/9_p/
327,300476288,"741 S 3rd St, San Jose, CA 95112",37.325796,-121.880374,2400000,USD,,,4510.0 sqft,,,3069,18,,FALSE,https://photos.zillowstatic.com/fp/5b672af2f43cbdac021a550e42670fce-p_e.jpg,Multi-family home for sale,,"https://www.zillow.com/homes/san-jose,-CA_rb/",https://www.zillow.com/homedetails/741-S-3rd-St-San-Jose-CA-95112/300476288_zpid/,"https://www.zillow.com/homes/san-jose,-CA_rb/9_p/"
195,49288174,"12720 159th St E, Puyallup, WA 98374",47.112185,-122.258973,395000,USD,2,3,1259.0 sqft,,422000,2227,0,,FALSE,https://photos.zillowstatic.com/fp/4a18a936100c37501fa2206ba069279e-p_e.jpg,Active,,https://www.zillow.com/homes/WA_rb/,https://www.zillow.com/homedetails/12720-159th-St-E-Puyallup-WA-98374/49288174_zpid/,https://www.zillow.com/homes/WA_rb/5_p/
46,2067943138,"23929 113th Ave E LOT 7, Graham, WA 98338",47.07919,-122.27801,489900,USD,2,3,1280.0 sqft,,,,0,,FALSE,https://photos.zillowstatic.com/fp/909990124cdce4c34ca676959ebbda9e-p_e.jpg,Active,,https://www.zillow.com/homes/WA_rb/,https://www.zillow.com/homedetails/23929-113th-Ave-E-LOT-7-Graham-WA-98338/2067943138_zpid/,https://www.zillow.com/homes/WA_rb/2_p/
382,29761558,"839 Oak Hill Ave, Endicott, NY 13760",42.122209,-76.051268,191500,USD,3,3,1920.0 sqft,,165600,1699,0,,FALSE,https://photos.zillowstatic.com/fp/e7b27e0be6af8cdecef0a3017411a0b5-p_e.jpg,House for sale,Listing by: CENTURY 21/SBARRA,https://www.zillow.com/homes/NY_rb/,https://www.zillow.com/homedetails/839-Oak-Hill-Ave-Endicott-NY-13760/29761558_zpid/,https://www.zillow.com/homes/NY_rb/10_p/
286,48650474,"3209 S 144th St, Tukwila, WA 98168",47.474075,-122.291513,499000,USD,2,3,1130.0 sqft,,504700,2437,0,,FALSE,https://photos.zillowstatic.com/fp/4def3848235328bae7b0e6848c82f5fb-p_e.jpg,Active,,https://www.zillow.com/homes/WA_rb/,https://www.zillow.com/homedetails/3209-S-144th-St-Tukwila-WA-98168/48650474_zpid/,https://www.zillow.com/homes/WA_rb/8_p/
366,32537057,"177 Main St, Richville, NY 13681",44.41915,-75.391575,149000,USD,2,4,2579.0 sqft,,113000,1464,0,,FALSE,https://photos.zillowstatic.com/fp/f926fcb20bb98976a918062aa7b9f2cd-p_e.jpg,House for sale,"Listing by: T.L.C. Real Estate, LLC",https://www.zillow.com/homes/NY_rb/,https://www.zillow.com/homedetails/177-Main-St-Richville-NY-13681/32537057_zpid/,https://www.zillow.com/homes/NY_rb/10_p/
324,62804506,"4602 Cole Ct SE, Olympia, WA 98501",47.005434,-122.865622,455000,USD,2,3,1443.0 sqft,,427700,2199,0,,FALSE,https://photos.zillowstatic.com/fp/5955a5690112a72ff99af7d3987315f4-p_e.jpg,Active,,https://www.zillow.com/homes/WA_rb/,https://www.zillow.com/homedetails/4602-Cole-Ct-SE-Olympia-WA-98501/62804506_zpid/,https://www.zillow.com/homes/WA_rb/9_p/
533,13355730,"557 S Pearl St, Denver, CO 80209",39.706457,-104.98076,995000,USD,3,5,2792.0 sqft,,1049700,4333,14,,FALSE,https://photos.zillowstatic.com/fp/adb694e9033ac59ee53fe206cafc21d6-p_e.jpg,House for sale,American Home Agents,"https://www.zillow.com/homes/denver,-co_rb/",https://www.zillow.com/homedetails/557-S-Pearl-St-Denver-CO-80209/13355730_zpid/,"https://www.zillow.com/homes/denver,-co_rb/14_p/"
526,31495882,"189 E 7th St, New York, NY 10009",40.724938,-73.980515,6500000,USD,5,3,3680.0 sqft,,,8712,0,,FALSE,https://photos.zillowstatic.com/fp/97c793d5e6a92434c8a1ae2aa19c73c2-p_e.jpg,Townhouse for sale,Listing by: Sotheby's International Realty,https://www.zillow.com/homes/NY_rb/,https://www.zillow.com/homedetails/189-E-7th-St-New-York-NY-10009/31495882_zpid/,https://www.zillow.com/homes/NY_rb/14_p/
375,30842834,"8666 Lake Rd, Chittenango, NY 13037",43.146701,-75.871587,239900,USD,2,3,2516.0 sqft,,349900,1929,0,,FALSE,https://photos.zillowstatic.com/fp/74467582c448e5a122248e229005fd23-p_e.jpg,House for sale,Listing by: Coldwell Banker Prime Prop.,https://www.zillow.com/homes/NY_rb/,https://www.zillow.com/homedetails/8666-Lake-Rd-Chittenango-NY-13037/30842834_zpid/,https://www.zillow.com/homes/NY_rb/10_p/
225,2068426969,"Oliver Plan, The Hub at Virginia Village",39.680219,-104.922037,614990,USD,4,4,1955.0 sqft,,,,2,,FALSE,https://photos.zillowstatic.com/fp/0d180a8ce9b2efecbd0d20d4a6df64fb-p_e.jpg,New construction,,"https://www.zillow.com/homes/denver,-co_rb/",https://www.zillow.com/community/hub-at-virginia-village/2068426969_zpid/,"https://www.zillow.com/homes/denver,-co_rb/6_p/"
191,2084711666,"Residence 3 Plan, Asana",37.322448,-121.813219,1466000,USD,4,3,3090.0 sqft,,,2058,7,,FALSE,https://photos.zillowstatic.com/fp/42ce2dd8f1290f27ccb0f9411a1aeb3c-p_e.jpg,New construction,,"https://www.zillow.com/homes/san-jose,-CA_rb/",https://www.zillow.com/community/asana/2084711666_zpid/,"https://www.zillow.com/homes/san-jose,-CA_rb/5_p/"
493,29683808,"22 Lombard St, Schenectady, NY 12304",42.759149,-73.876773,319900,USD,3,5,2140.0 sqft,,326700,2799,0,,FALSE,https://photos.zillowstatic.com/fp/2bd958f5aa80d468967083bb3e990c1b-p_e.jpg,House for sale,Listing by: Romeo Team Realty,https://www.zillow.com/homes/NY_rb/,https://www.zillow.com/homedetails/22-Lombard-St-Schenectady-NY-12304/29683808_zpid/,https://www.zillow.com/homes/NY_rb/13_p/
300,2068731613,"Plan 6 Plan, Atwood at 3Roots",32.900235,-117.169664,799020,USD,3,2,1680.0 sqft,,,2704,5,,FALSE,https://photos.zillowstatic.com/fp/4b7581b85a750695abd8e73cf260bd21-p_e.jpg,New construction,,"https://www.zillow.com/homes/San-Diego,-CA_rb/",https://www.zillow.com/community/atwood-at-3roots/2068731613_zpid/,"https://www.zillow.com/homes/San-Diego,-CA_rb/8_p/"
550,169118663,"119 Brettonwood Dr, San Antonio, TX 78218",29.486374,-98.42806,220,USD,2,,1826.0 sqft,,196100,1079,0,,FALSE,"https://maps.googleapis.com/maps/api/staticmap?mobile=false&sensor=true&maptype=satellite&size=575x242&zoom=17&center=29.486374,-98.42806&key=AIzaSyBJsNQO5ZeG-XAbqqWLKwG08fWITSxg33w&signature=d5LQW1sje48RtC5wmxgYDbNWWoA=",Multi-family home for sale,Lifestyles Realty Centrl Texas,https://www.zillow.com/homes/TX_rb/,https://www.zillow.com/homedetails/119-Brettonwood-Dr-San-Antonio-TX-78218/169118663_zpid/,https://www.zillow.com/homes/TX_rb/14_p/
37,49202942,"1413 N 6th St, Tacoma, WA 98403",47.259194,-122.461035,500000,USD,2,2,1566.0 sqft,,550500,2348,0,,FALSE,https://photos.zillowstatic.com/fp/2876338aeb5009e261fca276781d09b1-p_e.jpg,Active,,https://www.zillow.com/homes/WA_rb/,https://www.zillow.com/homedetails/1413-N-6th-St-Tacoma-WA-98403/49202942_zpid/,https://www.zillow.com/homes/WA_rb/
373,2068016085,"815 S Umatilla Way, Denver, CO 80223",39.702168,-105.012455,474000,USD,1,3,1526.0 sqft,,,,7,,FALSE,https://photos.zillowstatic.com/fp/f3a5755c25135079690e1159ac536be8-p_e.jpg,House for sale,Compass - Denver,"https://www.zillow.com/homes/denver,-co_rb/",https://www.zillow.com/homedetails/815-S-Umatilla-Way-Denver-CO-80223/2068016085_zpid/,"https://www.zillow.com/homes/denver,-co_rb/10_p/"
396,30496412,"887 Bogart Rd, Palenville, NY 12463",42.202773,-74.00367,399000,USD,3,3,352836.0 sqft,,463200,2715,0,,FALSE,https://photos.zillowstatic.com/fp/ac0210b30af081761ebb156adc3a2a77-p_e.jpg,House for sale,Listing by: Win Morrison Reaty - Catskill,https://www.zillow.com/homes/NY_rb/,https://www.zillow.com/homedetails/887-Bogart-Rd-Palenville-NY-12463/30496412_zpid/,https://www.zillow.com/homes/NY_rb/10_p/
348,54772388,"3646 Jasmine Cir, San Jose, CA 95135",37.310104,-121.757725,1230000,USD,3,3,1545.0 sqft,,1306005,3499,22,,FALSE,https://photos.zillowstatic.com/fp/2a196497dc674ca4ec51ad68b76f82fd-p_e.jpg,Townhouse for sale,,"https://www.zillow.com/homes/san-jose,-CA_rb/",https://www.zillow.com/homedetails/3646-Jasmine-Cir-San-Jose-CA-95135/54772388_zpid/,"https://www.zillow.com/homes/san-jose,-CA_rb/9_p/"
161,2068827930,"LOT 56 Welcome Vw, Escondido, CA 92026",33.218655,-117.124238,450000,USD,,,,4.6 acres,,1694,56,,FALSE,https://photos.zillowstatic.com/fp/d1951b8b01f6bbf04e9b3dc4960e7bb7-p_e.jpg,Lot / Land for sale,Big Block Realty,"https://www.zillow.com/homes/Escondido,-CA_rb/",https://www.zillow.com/homedetails/LOT-56-Welcome-Vw-Escondido-CA-92026/2068827930_zpid/,"https://www.zillow.com/homes/Escondido,-CA_rb/5_p/"
119,71007464,"1350 N Escondido Blvd UNIT 7, Escondido, CA 92026",33.141622,-117.092495,269900,USD,1,0,480.0 sqft,,237400,2699,29,,FALSE,https://photos.zillowstatic.com/fp/9af15c403d2e26789873c1b136414cae-p_e.jpg,Condo for sale,Lifetime Real Estate,"https://www.zillow.com/homes/Escondido,-CA_rb/",https://www.zillow.com/homedetails/1350-N-Escondido-Blvd-UNIT-7-Escondido-CA-92026/71007464_zpid/,"https://www.zillow.com/homes/Escondido,-CA_rb/3_p/"
787,2069242592,"1075 Sunset Crossing Poin, San Diego, CA 92154",32.579183,-117.018124,760000,USD,3,3,1923.0 sqft,,,,30,,FALSE,https://photos.zillowstatic.com/fp/4040cf7e2889e1d3223753d0dbf0bade-p_e.jpg,House for sale,"Ana Gonzalez, BROKER","https://www.zillow.com/homes/San-Diego,-CA_rb/",https://www.zillow.com/homedetails/1075-Sunset-Crossing-Poin-San-Diego-CA-92154/2069242592_zpid/,"https://www.zillow.com/homes/San-Diego,-CA_rb/20_p/"
479,2067949042,"10707 60th Street Ct E #151, Puyallup, WA 98372",47.202585,-122.28657,99500,USD,2,2,1243.0 sqft,,,,0,,FALSE,https://photos.zillowstatic.com/fp/5ddbd192ff3f85b0ff1c24ae791461e4-p_e.jpg,Active,,https://www.zillow.com/homes/WA_rb/,https://www.zillow.com/homedetails/10707-60th-Street-Ct-E-151-Puyallup-WA-98372/2067949042_zpid/,https://www.zillow.com/homes/WA_rb/12_p/
196,30256430,"388 Windermere Blvd, Amherst, NY 14226",42.967848,-78.819856,165000,USD,2,4,1465.0 sqft,,183000,1627,0,,FALSE,https://photos.zillowstatic.com/fp/26e76b2d73ddb9beb70dacbe46f75da2-p_e.jpg,House for sale,Listing by: Hunt Real Estate ERA,https://www.zillow.com/homes/NY_rb/,https://www.zillow.com/homedetails/388-Windermere-Blvd-Amherst-NY-14226/30256430_zpid/,https://www.zillow.com/homes/NY_rb/5_p/
153,2067946784,"5322 Ingersoll Ave APT B-5, Des Moines, IA 50312",41.586172,-93.690702,107000,USD,1,2,900.0 sqft,,,,0,,FALSE,https://photos.zillowstatic.com/fp/e02294b683a98f8143c2b1a6bfbe758d-p_e.jpg,Townhouse for sale,RE/MAX Concepts,https://www.zillow.com/homes/IA_rb/,https://www.zillow.com/homedetails/5322-Ingersoll-Ave-APT-B-5-Des-Moines-IA-50312/2067946784_zpid/,https://www.zillow.com/homes/IA_rb/4_p/
